% TASKFILE
% Generated: 12/11/2018, 9:25 AM
% Camera Description: RikolaDT-0011
% FPI Identifier: PFPI-006-V073
% Calibration Filename: R-Camera-11-CalibDataHeader-20150826.hdt
% ----------------------------

C0,16246,16629,16490,11081,5.0000,1.0000,0.0000,2
C1,16272,16656,16516,11081,5.0000,1.0000,0.0000,2
C2,16298,16683,16543,11081,5.0000,1.0000,0.0000,2
C3,16323,16710,16568,11081,5.0000,1.0000,0.0000,2
C4,16348,16737,16593,11081,5.0000,1.0000,0.0000,2
C5,16373,16763,16617,11081,5.0000,1.0000,0.0000,2
C6,16398,16790,16642,11081,5.0000,1.0000,0.0000,2
C7,16423,16817,16667,11081,5.0000,1.0000,0.0000,2
C8,16448,16843,16691,11081,5.0000,1.0000,0.0000,2
C9,16473,16870,16716,11081,5.0000,1.0000,0.0000,2
C10,16498,16897,16741,11081,5.0000,1.0000,0.0000,2
C11,16523,16924,16765,11081,5.0000,1.0000,0.0000,2
C12,17412,17834,17659,11081,5.0000,1.0000,0.0000,1
C13,17418,17840,17665,11081,5.0000,1.0000,0.0000,1
C14,17424,17846,17671,11081,5.0000,1.0000,0.0000,1
C15,17430,17852,17677,11081,5.0000,1.0000,0.0000,1
C16,17436,17858,17683,11081,5.0000,1.0000,0.0000,1
C17,17442,17865,17688,11081,5.0000,1.0000,0.0000,1
C18,17447,17871,17694,11081,5.0000,1.0000,0.0000,1
C19,17453,17877,17700,11081,5.0000,1.0000,0.0000,1
C20,17459,17883,17706,11081,5.0000,1.0000,0.0000,1
C21,17465,17889,17712,11081,5.0000,1.0000,0.0000,1
C22,17471,17895,17718,11081,5.0000,1.0000,0.0000,1
C23,17477,17901,17724,11081,5.0000,1.0000,0.0000,1
C24,65535,65535,65535,11081,5.0000,1.0000,0.0000,1

P4,5,950
M0,14464,15625,14932,11081,5.0000,1.0000,0.0000,2
M1,16329,17617,16760,11081,5.0000,1.0000,0.0000,2
M2,16473,17768,16912,11081,5.0000,1.0000,0.0000,2
M3,16617,17919,17063,11081,5.0000,1.0000,0.0000,2
M4,16716,18023,17167,11081,5.0000,1.0000,0.0000,2
M5,16927,18244,17389,11081,5.0000,1.0000,0.0000,2
M6,17051,18374,17518,11081,5.0000,1.0000,0.0000,2
M7,17180,18509,17654,11081,5.0000,1.0000,0.0000,2
M8,17334,18671,17815,11081,5.0000,1.0000,0.0000,2
M9,17432,18774,17918,11081,5.0000,1.0000,0.0000,2
M10,15633,16884,16041,11081,5.0000,1.0000,0.0000,1
M11,15699,16953,16108,11081,5.0000,1.0000,0.0000,1
M12,15843,17105,16255,11081,5.0000,1.0000,0.0000,1
M13,15907,17174,16322,11081,5.0000,1.0000,0.0000,1
M14,16004,17276,16422,11081,5.0000,1.0000,0.0000,1
M15,16068,17343,16489,11081,5.0000,1.0000,0.0000,1
M16,16145,17424,16569,11081,5.0000,1.0000,0.0000,1
M17,16246,17530,16675,11081,5.0000,1.0000,0.0000,1
M18,16366,17656,16800,11081,5.0000,1.0000,0.0000,1
M19,16504,17801,16945,11081,5.0000,1.0000,0.0000,1
M20,16642,17945,17089,11081,5.0000,1.0000,0.0000,1
M21,16704,18010,17154,11081,5.0000,1.0000,0.0000,1
M22,16772,18082,17226,11081,5.0000,1.0000,0.0000,1
M23,16840,18153,17298,11081,5.0000,1.0000,0.0000,1
M24,17605,18955,18098,11081,5.0000,1.0000,0.0000,1
M25,65535,65535,65535,11081,1.0000,1.0000,0.0000,2
K00000.DAT, 32216, 5.00, 1.20, -1, 0, 15.12.2018 12:52:31, $GPRMC,125348.886,V,,,,,0.00,0.00,151218,,,N*4C, 27.31, 26, 21, 0, 0, 0, 0
K00001.DAT, 37205, 5.00, 1.20, -1, 0, 15.12.2018 12:52:31, $GPRMC,125353.886,V,,,,,0.00,0.00,151218,,,N*46, 27.37, 26, 21, 0, 0, 0, 0
K00002.DAT, 42223, 5.00, 1.20, -1, 0, 15.12.2018 12:52:31, $GPRMC,125358.886,V,,,,,0.00,0.00,151218,,,N*4D, 27.44, 27, 21, 0, 0, 0, 0
K00003.DAT, 47213, 5.00, 1.20, -1, 0, 15.12.2018 12:52:31, $GPRMC,125403.886,V,,,,,0.00,0.00,151218,,,N*44, 27.44, 27, 22, 0, 0, 0, 0
K00004.DAT, 52213, 5.00, 1.20, -1, 0, 15.12.2018 12:52:31, $GPRMC,125408.886,V,,,,,0.00,0.00,151218,,,N*4F, 27.50, 27, 22, 0, 0, 0, 0
K00005.DAT, 57213, 5.00, 1.20, -1, 0, 15.12.2018 12:52:31, $GPRMC,125413.731,V,,,,,0.00,0.00,151218,,,N*46, 27.56, 27, 22, 0, 0, 0, 0
K00006.DAT, 62213, 5.00, 1.20, -1, 0, 15.12.2018 12:52:31, $GPRMC,125418.888,V,,,,,0.00,0.00,151218,,,N*40, 27.56, 28, 22, 0, 0, 0, 0
K00007.DAT, 67223, 5.00, 1.20, -1, 0, 15.12.2018 12:52:31, $GPRMC,125423.888,V,,,,,0.00,0.00,151218,,,N*48, 27.62, 27, 22, 0, 0, 0, 0
K00008.DAT, 72213, 5.00, 1.20, -1, 0, 15.12.2018 12:52:31, $GPRMC,125428.888,V,,,,,0.00,0.00,151218,,,N*43, 27.69, 28, 22, 0, 0, 0, 0
K00009.DAT, 77213, 5.00, 1.20, -1, 0, 15.12.2018 12:52:31, $GPRMC,125433.888,V,,,,,0.00,0.00,151218,,,N*49, 27.69, 28, 23, 0, 0, 0, 0
K00010.DAT, 82213, 5.00, 1.20, -1, 0, 15.12.2018 12:52:31, $GPRMC,125438.888,V,,,,,0.00,0.00,151218,,,N*42, 27.75, 28, 23, 0, 0, 0, 0
K00011.DAT, 87213, 5.00, 1.20, -1, 87152, 15.12.2018 12:52:31, $GNRMC,125443.800,A,2207.3335,S,05124.4817,W,0.38,262.58,151218,,,A*75, 27.81, 28, 23, 0, 0, 0, 0
K00012.DAT, 92213, 5.00, 1.20, -1, 92156, 15.12.2018 12:52:31, $GNRMC,125448.800,A,2207.3326,S,05124.4816,W,0.17,337.30,151218,,,A*7F, 27.81, 28, 23, 0, 0, 0, 0
K00013.DAT, 97213, 5.00, 1.20, -1, 97158, 15.12.2018 12:52:31, $GNRMC,125453.800,A,2207.3332,S,05124.4834,W,0.37,284.38,151218,,,A*73, 27.87, 29, 24, 0, 0, 0, 0
K00014.DAT, 102213, 5.00, 1.20, -1, 102155, 15.12.2018 12:52:31, $GNRMC,125458.800,A,2207.3334,S,05124.4841,W,0.49,275.11,151218,,,A*70, 27.87, 28, 23, 0, 0, 0, 0
K00015.DAT, 107223, 5.00, 1.20, -1, 107159, 15.12.2018 12:52:31, $GNRMC,125503.800,A,2207.3336,S,05124.4825,W,0.45,251.39,151218,,,A*7F, 27.94, 29, 24, 0, 0, 0, 0
K00016.DAT, 112213, 5.00, 1.20, -1, 112157, 15.12.2018 12:52:31, $GNRMC,125508.800,A,2207.3342,S,05124.4822,W,0.55,268.80,151218,,,A*79, 28.00, 29, 24, 0, 0, 0, 0
K00017.DAT, 117213, 5.00, 1.20, -1, 117155, 15.12.2018 12:52:31, $GNRMC,125513.800,A,2207.3344,S,05124.4818,W,0.31,282.66,151218,,,A*72, 28.00, 29, 24, 0, 0, 0, 0
K00018.DAT, 122213, 5.00, 1.20, -1, 122158, 15.12.2018 12:52:31, $GNRMC,125518.800,A,2207.3343,S,05124.4820,W,0.39,267.31,151218,,,A*74, 28.06, 30, 24, 0, 0, 0, 0
K00019.DAT, 127214, 5.00, 1.20, -1, 127159, 15.12.2018 12:52:31, $GNRMC,125523.800,A,2207.3343,S,05124.4819,W,0.36,259.56,151218,,,A*75, 28.06, 30, 24, 0, 0, 0, 0
K00020.DAT, 132224, 5.00, 1.20, -1, 132159, 15.12.2018 12:52:31, $GNRMC,125528.800,A,2207.3338,S,05124.4815,W,0.34,280.89,151218,,,A*7A, 28.12, 30, 24, 0, 0, 0, 0
K00021.DAT, 137214, 5.00, 1.20, -1, 137165, 15.12.2018 12:52:31, $GNRMC,125533.800,A,2207.3333,S,05124.4794,W,0.19,27.34,151218,,,A*4B, 28.19, 30, 24, 0, 0, 0, 0
K00022.DAT, 142214, 5.00, 1.20, -1, 142165, 15.12.2018 12:52:31, $GNRMC,125538.800,A,2207.3332,S,05124.4793,W,0.13,282.17,151218,,,A*70, 28.19, 30, 24, 0, 0, 0, 0
K00023.DAT, 147214, 5.00, 1.20, -1, 147163, 15.12.2018 12:52:31, $GNRMC,125543.800,A,2207.3330,S,05124.4794,W,0.21,315.90,151218,,,A*78, 28.25, 30, 24, 0, 0, 0, 0
K00024.DAT, 152214, 5.00, 1.20, -1, 152163, 15.12.2018 12:52:31, $GNRMC,125548.800,A,2207.3328,S,05124.4795,W,0.17,323.13,151218,,,A*70, 28.25, 30, 25, 0, 0, 0, 0
K00025.DAT, 157224, 5.00, 1.20, -1, 157165, 15.12.2018 12:52:31, $GNRMC,125553.800,A,2207.3323,S,05124.4795,W,0.33,350.32,151218,,,A*70, 28.31, 30, 25, 0, 0, 0, 0
K00026.DAT, 162214, 5.00, 1.20, -1, 162155, 15.12.2018 12:52:31, $GNRMC,125558.800,A,2207.3322,S,05124.4793,W,0.16,2.72,151218,,,A*7B, 28.37, 30, 25, 0, 0, 0, 0
K00027.DAT, 167214, 5.00, 1.20, -1, 167162, 15.12.2018 12:52:31, $GNRMC,125603.800,A,2207.3324,S,05124.4789,W,0.15,12.38,151218,,,A*47, 28.37, 30, 25, 0, 0, 0, 0
K00028.DAT, 172224, 5.00, 1.20, -1, 172160, 15.12.2018 12:52:31, $GNRMC,125608.800,A,2207.3320,S,05124.4782,W,0.34,34.93,151218,,,A*45, 28.44, 30, 25, 0, 0, 0, 0
K00029.DAT, 177214, 5.00, 1.20, -1, 177163, 15.12.2018 12:52:31, $GNRMC,125613.800,A,2207.3316,S,05124.4778,W,0.35,67.38,151218,,,A*49, 28.44, 30, 25, 0, 0, 0, 0
K00030.DAT, 182214, 5.00, 1.20, -1, 182161, 15.12.2018 12:52:31, $GNRMC,125618.800,A,2207.3312,S,05124.4775,W,0.28,26.57,151218,,,A*4B, 28.50, 31, 25, 0, 0, 0, 0
K00031.DAT, 187214, 5.00, 1.20, -1, 187167, 15.12.2018 12:52:31, $GNRMC,125623.800,A,2207.3314,S,05124.4778,W,0.28,11.35,151218,,,A*48, 28.50, 30, 25, 0, 0, 0, 0
K00032.DAT, 192214, 5.00, 1.20, -1, 192164, 15.12.2018 12:52:31, $GNRMC,125628.800,A,2207.3319,S,05124.4784,W,0.23,317.35,151218,,,A*73, 28.56, 30, 25, 0, 0, 0, 0
K00033.DAT, 197224, 5.00, 1.20, -1, 197164, 15.12.2018 12:52:31, $GNRMC,125633.800,A,2207.3317,S,05124.4782,W,0.11,283.54,151218,,,A*7B, 28.62, 31, 25, 0, 0, 0, 0
K00034.DAT, 202214, 5.00, 1.20, -1, 202162, 15.12.2018 12:52:31, $GNRMC,125638.800,A,2207.3314,S,05124.4773,W,0.25,39.11,151218,,,A*48, 28.62, 31, 26, 0, 0, 0, 0
K00035.DAT, 207214, 5.00, 1.20, -1, 207166, 15.12.2018 12:52:31, $GNRMC,125643.800,A,2207.3313,S,05124.4764,W,0.12,102.93,151218,,,A*72, 28.69, 31, 26, 0, 0, 0, 0
K00036.DAT, 212214, 5.00, 1.20, -1, 212167, 15.12.2018 12:52:31, $GNRMC,125648.800,A,2207.3317,S,05124.4763,W,0.27,42.40,151218,,,A*47, 28.69, 31, 26, 0, 0, 0, 0
K00037.DAT, 217214, 5.00, 1.20, -1, 217167, 15.12.2018 12:52:31, $GNRMC,125653.800,A,2207.3320,S,05124.4763,W,0.30,26.12,151218,,,A*4A, 28.75, 31, 26, 0, 0, 0, 0
K00038.DAT, 222224, 5.00, 1.20, -1, 222166, 15.12.2018 12:52:31, $GNRMC,125658.800,A,2207.3316,S,05124.4763,W,0.11,21.39,151218,,,A*49, 28.81, 31, 26, 0, 0, 0, 0
K00039.DAT, 227214, 5.00, 1.20, -1, 227167, 15.12.2018 12:52:31, $GNRMC,125703.800,A,2207.3319,S,05124.4767,W,0.09,304.57,151218,,,A*78, 28.81, 31, 27, 0, 0, 0, 0
K00040.DAT, 232214, 5.00, 1.20, -1, 232163, 15.12.2018 12:52:31, $GNRMC,125708.800,A,2207.3324,S,05124.4773,W,0.06,198.52,151218,,,A*75, 28.87, 31, 27, 0, 0, 0, 0
K00041.DAT, 237214, 5.00, 1.20, -1, 237168, 15.12.2018 12:52:31, $GNRMC,125713.800,A,2207.3324,S,05124.4778,W,0.12,303.12,151218,,,A*75, 28.87, 31, 26, 0, 0, 0, 0
K00042.DAT, 242214, 5.00, 1.20, -1, 242161, 15.12.2018 12:52:31, $GNRMC,125718.800,A,2207.3322,S,05124.4781,W,0.54,337.70,151218,,,A*7F, 28.94, 31, 27, 0, 0, 0, 0
K00043.DAT, 247224, 5.00, 1.20, -1, 247161, 15.12.2018 12:52:31, $GNRMC,125723.800,A,2207.3324,S,05124.4782,W,0.03,172.80,151218,,,A*7C, 29.00, 32, 27, 0, 0, 0, 0
K00044.DAT, 252214, 5.00, 1.20, -1, 252166, 15.12.2018 12:52:31, $GNRMC,125728.800,A,2207.3327,S,05124.4785,W,0.25,297.11,151218,,,A*77, 29.00, 31, 27, 0, 0, 0, 0
K00045.DAT, 257214, 5.00, 1.20, -1, 257161, 15.12.2018 12:52:31, $GNRMC,125733.800,A,2207.3325,S,05124.4786,W,0.07,330.77,151218,,,A*70, 29.06, 31, 27, 0, 0, 0, 0
K00046.DAT, 262214, 5.00, 1.20, -1, 262162, 15.12.2018 12:52:31, $GNRMC,125738.800,A,2207.3322,S,05124.4792,W,0.33,333.38,151218,,,A*76, 29.06, 31, 27, 0, 0, 0, 0
K00047.DAT, 267224, 5.00, 1.20, -1, 267167, 15.12.2018 12:52:31, $GNRMC,125743.800,A,2207.3327,S,05124.4795,W,0.48,224.01,151218,,,A*79, 29.12, 32, 27, 0, 0, 0, 0
K00048.DAT, 272214, 5.00, 1.20, -1, 272166, 15.12.2018 12:52:31, $GNRMC,125748.800,A,2207.3326,S,05124.4790,W,0.36,312.40,151218,,,A*7E, 29.19, 32, 27, 0, 0, 0, 0
K00049.DAT, 277214, 5.00, 1.20, -1, 277157, 15.12.2018 12:52:31, $GNRMC,125753.800,A,2207.3327,S,05124.4783,W,0.25,211.80,151218,,,A*7B, 29.19, 32, 27, 0, 0, 0, 0
K00050.DAT, 282214, 5.00, 1.20, -1, 282165, 15.12.2018 12:52:31, $GNRMC,125758.800,A,2207.3327,S,05124.4784,W,0.45,256.14,151218,,,A*7F, 29.25, 33, 27, 0, 0, 0, 0
K00051.DAT, 287214, 5.00, 1.20, -1, 287161, 15.12.2018 12:52:31, $GNRMC,125803.800,A,2207.3327,S,05124.4784,W,0.55,232.75,151218,,,A*7A, 29.31, 32, 27, 0, 0, 0, 0
K00052.DAT, 292214, 5.00, 1.20, -1, 292164, 15.12.2018 12:52:31, $GNRMC,125808.800,A,2207.3334,S,05124.4784,W,0.38,200.18,151218,,,A*72, 29.31, 32, 27, 0, 0, 0, 0
K00053.DAT, 297214, 5.00, 1.20, -1, 297168, 15.12.2018 12:52:31, $GNRMC,125813.800,A,2207.3338,S,05124.4788,W,0.31,199.83,151218,,,A*70, 29.37, 33, 27, 0, 0, 0, 0
K00054.DAT, 302216, 5.00, 1.20, -1, 302163, 15.12.2018 12:52:31, $GNRMC,125818.800,A,2207.3338,S,05124.4791,W,0.22,302.08,151218,,,A*72, 29.37, 32, 27, 0, 0, 0, 0
K00055.DAT, 307216, 5.00, 1.20, -1, 307168, 15.12.2018 12:52:31, $GNRMC,125823.800,A,2207.3340,S,05124.4794,W,0.14,263.74,151218,,,A*78, 29.44, 33, 27, 0, 0, 0, 0
K00056.DAT, 312226, 5.00, 1.20, -1, 312168, 15.12.2018 12:52:31, $GNRMC,125828.800,A,2207.3342,S,05124.4794,W,0.11,255.83,151218,,,A*79, 29.50, 32, 27, 0, 0, 0, 0
K00057.DAT, 317216, 5.00, 1.20, -1, 317170, 15.12.2018 12:52:31, $GNRMC,125833.800,A,2207.3338,S,05124.4793,W,0.39,247.76,151218,,,A*7A, 29.50, 33, 27, 0, 0, 0, 0
K00058.DAT, 322216, 5.00, 1.20, -1, 322166, 15.12.2018 12:52:31, $GNRMC,125838.800,A,2207.3328,S,05124.4789,W,0.23,29.04,151218,,,A*4F, 29.56, 33, 27, 0, 0, 0, 0
K00059.DAT, 327216, 5.00, 1.20, -1, 327158, 15.12.2018 12:52:31, $GNRMC,125843.800,A,2207.3323,S,05124.4790,W,0.25,301.82,151218,,,A*71, 29.62, 33, 28, 0, 0, 0, 0
K00060.DAT, 332216, 5.00, 1.20, -1, 332165, 15.12.2018 12:52:31, $GNRMC,125848.800,A,2207.3319,S,05124.4783,W,0.13,297.44,151218,,,A*70, 29.62, 33, 28, 0, 0, 0, 0
K00061.DAT, 337226, 5.00, 1.20, -1, 337171, 15.12.2018 12:52:31, $GNRMC,125853.800,A,2207.3324,S,05124.4777,W,0.60,164.79,151218,,,A*7A, 29.69, 33, 28, 0, 0, 0, 0
K00062.DAT, 342216, 5.00, 1.20, -1, 342167, 15.12.2018 12:52:31, $GNRMC,125858.800,A,2207.3324,S,05124.4778,W,0.13,256.47,151218,,,A*75, 29.75, 33, 28, 0, 0, 0, 0
K00063.DAT, 347216, 5.00, 1.20, -1, 347168, 15.12.2018 12:52:31, $GNRMC,125903.800,A,2207.3323,S,05124.4777,W,0.14,41.96,151218,,,A*4D, 29.75, 33, 28, 0, 0, 0, 0
K00064.DAT, 352226, 5.00, 1.20, -1, 352169, 15.12.2018 12:52:31, $GNRMC,125908.800,A,2207.3330,S,05124.4780,W,0.23,252.41,151218,,,A*72, 29.81, 33, 27, 0, 0, 0, 0
K00065.DAT, 357219, 5.00, 1.20, -1, 357170, 15.12.2018 12:52:31, $GNRMC,125913.800,A,2207.3334,S,05124.4777,W,0.25,185.63,151218,,,A*7B, 29.87, 33, 28, 0, 0, 0, 0
K00066.DAT, 362230, 5.00, 1.20, -1, 362163, 15.12.2018 12:52:31, $GNRMC,125918.800,A,2207.3326,S,05124.4769,W,0.44,12.12,151218,,,A*42, 29.87, 33, 28, 0, 0, 0, 0
K00067.DAT, 367230, 5.00, 1.20, -1, 367166, 15.12.2018 12:52:31, $GNRMC,125923.800,A,2207.3323,S,05124.4776,W,0.37,278.57,151218,,,A*7A, 29.94, 33, 28, 0, 0, 0, 0
K00068.DAT, 372230, 5.00, 1.20, -1, 372167, 15.12.2018 12:52:31, $GNRMC,125928.800,A,2207.3326,S,05124.4785,W,0.34,289.63,151218,,,A*72, 30.00, 33, 28, 0, 0, 0, 0
K00069.DAT, 377241, 5.00, 1.20, -1, 377169, 15.12.2018 12:52:31, $GNRMC,125933.800,A,2207.3331,S,05124.4790,W,0.51,167.45,151218,,,A*7E, 30.00, 33, 28, 0, 0, 0, 0
K00070.DAT, 382241, 5.00, 1.20, -1, 382168, 15.12.2018 12:52:31, $GNRMC,125938.800,A,2207.3328,S,05124.4797,W,0.24,289.84,151218,,,A*76, 30.06, 34, 28, 0, 0, 0, 0
K00071.DAT, 387241, 5.00, 1.20, -1, 387165, 15.12.2018 12:52:31, $GNRMC,125943.800,A,2207.3323,S,05124.4801,W,0.14,304.60,151218,,,A*7C, 30.06, 33, 28, 0, 0, 0, 0
K00072.DAT, 392241, 5.00, 1.20, -1, 392166, 15.12.2018 12:52:31, $GNRMC,125948.800,A,2207.3315,S,05124.4792,W,0.60,71.70,151218,,,A*44, 30.12, 34, 28, 0, 0, 0, 0
K00073.DAT, 397251, 5.00, 1.20, -1, 397162, 15.12.2018 12:52:31, $GNRMC,125953.800,A,2207.3313,S,05124.4793,W,0.35,54.61,151218,,,A*4E, 30.19, 34, 28, 0, 0, 0, 0
K00074.DAT, 402241, 5.00, 1.20, -1, 402168, 15.12.2018 12:52:31, $GNRMC,125958.800,A,2207.3314,S,05124.4796,W,0.41,278.22,151218,,,A*7F, 30.19, 34, 28, 0, 0, 0, 0
K00075.DAT, 407241, 5.00, 1.20, -1, 407165, 15.12.2018 12:52:31, $GNRMC,130003.800,A,2207.3306,S,05124.4800,W,0.70,307.47,151218,,,A*77, 30.25, 34, 29, 0, 0, 0, 0
K00076.DAT, 412241, 5.00, 1.20, -1, 412166, 15.12.2018 12:52:31, $GNRMC,130008.800,A,2207.3300,S,05124.4796,W,0.33,0.54,151218,,,A*7B, 30.31, 34, 28, 0, 0, 0, 0
K00077.DAT, 417241, 5.00, 1.20, -1, 417160, 15.12.2018 12:52:31, $GNRMC,130013.800,A,2207.3306,S,05124.4800,W,0.50,230.17,151218,,,A*74, 30.31, 34, 28, 0, 0, 0, 0
K00078.DAT, 422251, 5.00, 1.20, -1, 422164, 15.12.2018 12:52:31, $GNRMC,130018.800,A,2207.3304,S,05124.4798,W,0.18,311.89,151218,,,A*7A, 30.37, 34, 29, 0, 0, 0, 0
K00079.DAT, 427241, 5.00, 1.20, -1, 427168, 15.12.2018 12:52:31, $GNRMC,130023.800,A,2207.3302,S,05124.4800,W,0.76,327.25,151218,,,A*71, 30.44, 34, 28, 0, 0, 0, 0
K00080.DAT, 432241, 5.00, 1.20, -1, 432166, 15.12.2018 12:52:31, $GNRMC,130028.800,A,2207.3304,S,05124.4797,W,0.18,7.22,151218,,,A*73, 30.44, 34, 29, 0, 0, 0, 0
K00081.DAT, 437241, 5.00, 1.20, -1, 437167, 15.12.2018 12:52:31, $GNRMC,130033.800,A,2207.3304,S,05124.4793,W,0.46,311.75,151218,,,A*70, 30.50, 34, 29, 0, 0, 0, 0
K00082.DAT, 442251, 5.00, 1.20, -1, 442167, 15.12.2018 12:52:31, $GNRMC,130038.800,A,2207.3304,S,05124.4788,W,0.21,65.41,151218,,,A*47, 30.56, 34, 29, 0, 0, 0, 0
K00083.DAT, 447241, 5.00, 1.20, -1, 447165, 15.12.2018 12:52:31, $GNRMC,130043.800,A,2207.3306,S,05124.4785,W,0.12,322.48,151218,,,A*7D, 30.56, 34, 29, 0, 0, 0, 0
K00084.DAT, 452241, 5.00, 1.20, -1, 452167, 15.12.2018 12:52:31, $GNRMC,130048.800,A,2207.3305,S,05124.4781,W,0.17,336.57,151218,,,A*7F, 30.62, 34, 29, 0, 0, 0, 0
K00085.DAT, 457241, 5.00, 1.20, -1, 457150, 15.12.2018 12:52:31, $GNRMC,130053.800,A,2207.3299,S,05124.4774,W,1.04,3.32,151218,,,A*7E, 30.69, 34, 30, 0, 0, 0, 0
K00086.DAT, 462241, 5.00, 1.20, -1, 462166, 15.12.2018 12:52:31, $GNRMC,130058.800,A,2207.3300,S,05124.4767,W,0.52,38.93,151218,,,A*47, 30.69, 34, 29, 0, 0, 0, 0
K00087.DAT, 467251, 5.00, 1.20, -1, 467162, 15.12.2018 12:52:31, $GNRMC,130103.800,A,2207.3309,S,05124.4772,W,0.32,257.49,151218,,,A*7F, 30.75, 34, 30, 0, 0, 0, 0
K00088.DAT, 472241, 5.00, 1.20, -1, 472165, 15.12.2018 12:52:31, $GNRMC,130108.800,A,2207.3312,S,05124.4777,W,0.40,332.50,151218,,,A*74, 30.81, 34, 29, 0, 0, 0, 0
K00089.DAT, 477241, 5.00, 1.20, -1, 477170, 15.12.2018 12:52:31, $GNRMC,130113.800,A,2207.3315,S,05124.4778,W,0.14,106.27,151218,,,A*72, 30.81, 35, 29, 0, 0, 0, 0
K00090.DAT, 482241, 5.00, 1.20, -1, 482156, 15.12.2018 12:52:31, $GNRMC,130118.800,A,2207.3316,S,05124.4782,W,0.14,52.19,151218,,,A*42, 30.87, 34, 29, 0, 0, 0, 0
K00091.DAT, 487241, 5.00, 1.20, -1, 487164, 15.12.2018 12:52:31, $GNRMC,130123.800,A,2207.3316,S,05124.4786,W,0.36,344.69,151218,,,A*7D, 30.87, 34, 29, 0, 0, 0, 0
K00092.DAT, 492251, 5.00, 1.20, -1, 492165, 15.12.2018 12:52:31, $GNRMC,130128.800,A,2207.3313,S,05124.4783,W,0.78,6.90,151218,,,A*7F, 30.94, 35, 30, 0, 0, 0, 0
K00093.DAT, 497243, 5.00, 1.20, -1, 497165, 15.12.2018 12:52:31, $GNRMC,130133.800,A,2207.3308,S,05124.4775,W,0.72,51.26,151218,,,A*43, 31.00, 34, 29, 0, 0, 0, 0
K00094.DAT, 502243, 5.00, 1.20, -1, 502164, 15.12.2018 12:52:31, $GNRMC,130138.800,A,2207.3310,S,05124.4775,W,0.19,231.84,151218,,,A*70, 31.00, 34, 30, 0, 0, 0, 0
K00095.DAT, 507243, 5.00, 1.20, -1, 507164, 15.12.2018 12:52:31, $GNRMC,130143.800,A,2207.3316,S,05124.4778,W,0.36,245.27,151218,,,A*70, 31.06, 35, 30, 0, 0, 0, 0
K00096.DAT, 512243, 5.00, 1.20, -1, 512169, 15.12.2018 12:52:31, $GNRMC,130148.800,A,2207.3315,S,05124.4777,W,0.73,348.49,151218,,,A*72, 31.06, 35, 30, 0, 0, 0, 0
K00097.DAT, 517257, 5.00, 1.20, -1, 517166, 15.12.2018 12:52:31, $GNRMC,130153.800,A,2207.3296,S,05124.4824,W,3.81,294.23,151218,,,A*79, 31.12, 35, 30, 0, 0, 0, 0
K00098.DAT, 522247, 5.00, 1.20, -1, 522167, 15.12.2018 12:52:31, $GNRMC,130158.800,A,2207.3276,S,05124.4900,W,5.72,285.85,151218,,,A*7D, 31.19, 35, 30, 0, 0, 0, 0
K00099.DAT, 527247, 5.00, 1.20, -1, 527162, 15.12.2018 12:52:31, $GNRMC,130203.800,A,2207.3252,S,05124.4979,W,4.96,297.78,151218,,,A*72, 31.19, 35, 30, 0, 0, 0, 0
K00100.DAT, 532247, 5.00, 1.20, -1, 532162, 15.12.2018 12:52:31, $GNRMC,130208.800,A,2207.3231,S,05124.5064,W,5.94,294.70,151218,,,A*70, 31.25, 35, 30, 0, 0, 0, 0
K00101.DAT, 537247, 5.00, 1.20, -1, 537164, 15.12.2018 12:52:31, $GNRMC,130213.800,A,2207.3206,S,05124.5162,W,5.63,278.84,151218,,,A*78, 31.25, 36, 30, 0, 0, 0, 0
K00102.DAT, 542257, 5.00, 1.20, -1, 542162, 15.12.2018 12:52:31, $GNRMC,130218.800,A,2207.3177,S,05124.5241,W,5.43,286.76,151218,,,A*7A, 31.31, 36, 30, 0, 0, 0, 0
K00103.DAT, 547247, 5.00, 1.20, -1, 547164, 15.12.2018 12:52:31, $GNRMC,130223.800,A,2207.3168,S,05124.5323,W,6.57,272.76,151218,,,A*74, 31.31, 35, 30, 0, 0, 0, 0
K00104.DAT, 552247, 5.00, 1.20, -1, 552162, 15.12.2018 12:52:31, $GNRMC,130228.800,A,2207.3118,S,05124.5398,W,6.22,309.61,151218,,,A*71, 31.37, 35, 30, 0, 0, 0, 0
K00105.DAT, 557247, 5.00, 1.20, -1, 557164, 15.12.2018 12:52:31, $GNRMC,130233.800,A,2207.3069,S,05124.5470,W,5.93,301.03,151218,,,A*78, 31.37, 35, 30, 0, 0, 0, 0
K00106.DAT, 562247, 5.00, 1.20, -1, 562163, 15.12.2018 12:52:31, $GNRMC,130238.800,A,2207.3038,S,05124.5549,W,5.94,286.21,151218,,,A*75, 31.44, 36, 30, 0, 0, 0, 0
K00107.DAT, 567247, 5.00, 1.20, -1, 567164, 15.12.2018 12:52:31, $GNRMC,130243.800,A,2207.3027,S,05124.5636,W,5.01,287.39,151218,,,A*78, 31.44, 35, 30, 0, 0, 0, 0
K00108.DAT, 572247, 5.00, 1.20, -1, 572165, 15.12.2018 12:52:31, $GNRMC,130248.800,A,2207.2997,S,05124.5709,W,6.59,283.29,151218,,,A*76, 31.44, 36, 30, 0, 0, 0, 0
K00109.DAT, 577257, 5.00, 1.20, -1, 577164, 15.12.2018 12:52:31, $GNRMC,130253.800,A,2207.2966,S,05124.5794,W,7.01,290.73,151218,,,A*77, 31.50, 36, 30, 0, 0, 0, 0
K00110.DAT, 582247, 5.00, 1.20, -1, 582151, 15.12.2018 12:52:31, $GNRMC,130258.800,A,2207.2935,S,05124.5874,W,5.05,290.22,151218,,,A*79, 31.50, 36, 30, 0, 0, 0, 0
K00111.DAT, 587247, 5.00, 1.20, -1, 587172, 15.12.2018 12:52:31, $GNRMC,130303.800,A,2207.2879,S,05124.5874,W,2.17,97.14,151218,,,A*4B, 31.56, 36, 30, 0, 0, 0, 0
K00112.DAT, 592247, 5.00, 1.20, -1, 592171, 15.12.2018 12:52:31, $GNRMC,130308.800,A,2207.2928,S,05124.5795,W,7.29,114.98,151218,,,A*73, 31.56, 36, 30, 0, 0, 0, 0
K00113.DAT, 597247, 5.00, 1.20, -1, 597171, 15.12.2018 12:52:31, $GNRMC,130313.800,A,2207.2980,S,05124.5700,W,7.28,109.47,151218,,,A*78, 31.56, 36, 30, 0, 0, 0, 0
K00114.DAT, 602247, 5.00, 1.20, -1, 602171, 15.12.2018 12:52:31, $GNRMC,130318.800,A,2207.3030,S,05124.5599,W,7.70,118.24,151218,,,A*7A, 31.62, 36, 31, 0, 0, 0, 0
K00115.DAT, 607247, 5.00, 1.20, -1, 607169, 15.12.2018 12:52:31, $GNRMC,130323.800,A,2207.3078,S,05124.5507,W,7.22,108.17,151218,,,A*7F, 31.62, 36, 31, 0, 0, 0, 0
K00116.DAT, 612257, 5.00, 1.20, -1, 612169, 15.12.2018 12:52:31, $GNRMC,130328.800,A,2207.3117,S,05124.5398,W,7.33,118.05,151218,,,A*7E, 31.69, 36, 31, 0, 0, 0, 0
K00117.DAT, 617247, 5.00, 1.20, -1, 617169, 15.12.2018 12:52:31, $GNRMC,130333.800,A,2207.3156,S,05124.5312,W,6.68,114.26,151218,,,A*71, 31.69, 36, 31, 0, 0, 0, 0
K00118.DAT, 622247, 5.00, 1.20, -1, 622172, 15.12.2018 12:52:31, $GNRMC,130338.800,A,2207.3202,S,05124.5225,W,7.13,115.97,151218,,,A*7B, 31.75, 36, 31, 0, 0, 0, 0
K00119.DAT, 627247, 5.00, 1.20, -1, 627172, 15.12.2018 12:52:31, $GNRMC,130343.800,A,2207.3271,S,05124.5117,W,7.08,118.43,151218,,,A*7F, 31.75, 36, 31, 0, 0, 0, 0
K00120.DAT, 632247, 5.00, 1.20, -1, 632172, 15.12.2018 12:52:31, $GNRMC,130348.800,A,2207.3320,S,05124.5010,W,7.51,109.60,151218,,,A*7A, 31.81, 36, 31, 0, 0, 0, 0
K00121.DAT, 637247, 5.00, 1.20, -1, 637172, 15.12.2018 12:52:31, $GNRMC,130353.800,A,2207.3356,S,05124.4920,W,7.56,114.79,151218,,,A*79, 31.81, 36, 31, 0, 0, 0, 0
K00122.DAT, 642247, 5.00, 1.20, -1, 642169, 15.12.2018 12:52:31, $GNRMC,130358.800,A,2207.3404,S,05124.4828,W,6.90,119.78,151218,,,A*7C, 31.81, 36, 31, 0, 0, 0, 0
K00123.DAT, 647267, 5.00, 1.20, -1, 647173, 15.12.2018 12:52:31, $GNRMC,130403.800,A,2207.3447,S,05124.4731,W,7.54,115.33,151218,,,A*7F, 31.87, 36, 31, 0, 0, 0, 0
K00124.DAT, 652257, 5.00, 1.20, -1, 652172, 15.12.2018 12:52:31, $GNRMC,130408.800,A,2207.3482,S,05124.4633,W,7.00,106.93,151218,,,A*77, 31.87, 36, 31, 0, 0, 0, 0
K00125.DAT, 657257, 5.00, 1.20, -1, 657176, 15.12.2018 12:52:31, $GNRMC,130413.800,A,2207.3532,S,05124.4538,W,6.71,119.19,151218,,,A*74, 31.94, 36, 31, 0, 0, 0, 0
K00126.DAT, 662257, 5.00, 1.20, -1, 662173, 15.12.2018 12:52:31, $GNRMC,130418.800,A,2207.3565,S,05124.4444,W,8.00,121.49,151218,,,A*71, 31.94, 36, 31, 0, 0, 0, 0
K00127.DAT, 667257, 5.00, 1.20, -1, 667174, 15.12.2018 12:52:31, $GNRMC,130423.800,A,2207.3605,S,05124.4344,W,7.89,113.70,151218,,,A*7E, 32.00, 36, 31, 0, 0, 0, 0
K00128.DAT, 672257, 5.00, 1.20, -1, 672176, 15.12.2018 12:52:31, $GNRMC,130428.800,A,2207.3632,S,05124.4273,W,3.71,51.53,151218,,,A*41, 32.00, 37, 31, 0, 0, 0, 0
K00129.DAT, 677257, 5.00, 1.20, -1, 677171, 15.12.2018 12:52:31, $GNRMC,130433.800,A,2207.3555,S,05124.4238,W,7.37,22.02,151218,,,A*40, 32.00, 36, 31, 0, 0, 0, 0
K00130.DAT, 682270, 5.00, 1.20, -1, 682171, 15.12.2018 12:52:31, $GNRMC,130438.800,A,2207.3469,S,05124.4186,W,6.13,20.46,151218,,,A*46, 32.06, 36, 31, 0, 0, 0, 0
K00131.DAT, 687267, 5.00, 1.20, -1, 687172, 15.12.2018 12:52:31, $GNRMC,130443.800,A,2207.3455,S,05124.4227,W,6.49,305.33,151218,,,A*74, 32.06, 37, 31, 0, 0, 0, 0
K00132.DAT, 692267, 5.00, 1.20, -1, 692172, 15.12.2018 12:52:31, $GNRMC,130448.800,A,2207.3404,S,05124.4324,W,7.32,294.23,151218,,,A*7C, 32.12, 37, 31, 0, 0, 0, 0
K00133.DAT, 697267, 5.00, 1.20, -1, 697173, 15.12.2018 12:52:31, $GNRMC,130453.800,A,2207.3346,S,05124.4425,W,7.05,297.09,151218,,,A*7E, 32.12, 37, 31, 0, 0, 0, 0
K00134.DAT, 702267, 5.00, 1.20, -1, 702172, 15.12.2018 12:52:31, $GNRMC,130458.800,A,2207.3292,S,05124.4516,W,6.47,292.73,151218,,,A*73, 32.12, 36, 31, 0, 0, 0, 0
K00135.DAT, 707267, 5.00, 1.20, -1, 707172, 15.12.2018 12:52:31, $GNRMC,130503.800,A,2207.3238,S,05124.4611,W,7.46,285.02,151218,,,A*78, 32.19, 36, 31, 0, 0, 0, 0
K00136.DAT, 712267, 5.00, 1.20, -1, 712172, 15.12.2018 12:52:31, $GNRMC,130508.800,A,2207.3195,S,05124.4702,W,7.79,290.47,151218,,,A*7D, 32.19, 37, 31, 0, 0, 0, 0
K00137.DAT, 717277, 5.00, 1.20, -1, 717171, 15.12.2018 12:52:31, $GNRMC,130513.800,A,2207.3152,S,05124.4791,W,7.42,290.37,151218,,,A*79, 32.25, 37, 31, 0, 0, 0, 0
K00138.DAT, 722267, 5.00, 1.20, -1, 722172, 15.12.2018 12:52:31, $GNRMC,130518.800,A,2207.3101,S,05124.4875,W,6.76,298.92,151218,,,A*70, 32.25, 37, 31, 0, 0, 0, 0
K00139.DAT, 727267, 5.00, 1.20, -1, 727172, 15.12.2018 12:52:31, $GNRMC,130523.800,A,2207.3062,S,05124.4978,W,8.45,285.63,151218,,,A*7C, 32.25, 37, 31, 0, 0, 0, 0
K00140.DAT, 732267, 5.00, 1.20, -1, 732171, 15.12.2018 12:52:31, $GNRMC,130528.800,A,2207.3015,S,05124.5074,W,6.57,302.27,151218,,,A*70, 32.31, 37, 31, 0, 0, 0, 0
K00141.DAT, 737267, 5.00, 1.20, -1, 737172, 15.12.2018 12:52:31, $GNRMC,130533.800,A,2207.2978,S,05124.5169,W,7.11,299.31,151218,,,A*73, 32.31, 37, 31, 0, 0, 0, 0
K00142.DAT, 742267, 5.00, 1.20, -1, 742174, 15.12.2018 12:52:31, $GNRMC,130538.800,A,2207.2937,S,05124.5269,W,6.61,282.98,151218,,,A*7F, 32.31, 37, 31, 0, 0, 0, 0
K00143.DAT, 747267, 5.00, 1.20, -1, 747172, 15.12.2018 12:52:31, $GNRMC,130543.800,A,2207.2902,S,05124.5370,W,6.41,298.41,151218,,,A*71, 32.37, 37, 31, 0, 0, 0, 0
K00144.DAT, 752267, 5.00, 1.20, -1, 752172, 15.12.2018 12:52:31, $GNRMC,130548.800,A,2207.2861,S,05124.5461,W,6.67,292.20,151218,,,A*70, 32.37, 37, 31, 0, 0, 0, 0
K00145.DAT, 757277, 5.00, 1.20, -1, 757174, 15.12.2018 12:52:31, $GNRMC,130553.800,A,2207.2821,S,05124.5558,W,6.86,294.18,151218,,,A*77, 32.44, 37, 31, 0, 0, 0, 0
K00146.DAT, 762267, 5.00, 1.20, -1, 762172, 15.12.2018 12:52:31, $GNRMC,130558.800,A,2207.2780,S,05124.5662,W,6.94,288.57,151218,,,A*77, 32.44, 37, 31, 0, 0, 0, 0
K00147.DAT, 767267, 5.00, 1.20, -1, 767171, 15.12.2018 12:52:31, $GNRMC,130603.800,A,2207.2751,S,05124.5734,W,3.47,3.69,151218,,,A*73, 32.44, 37, 32, 0, 0, 0, 0
K00148.DAT, 772267, 5.00, 1.20, -1, 772170, 15.12.2018 12:52:31, $GNRMC,130608.800,A,2207.2695,S,05124.5690,W,6.59,43.57,151218,,,A*4D, 32.50, 37, 32, 0, 0, 0, 0
K00149.DAT, 777267, 5.00, 1.20, -1, 777169, 15.12.2018 12:52:31, $GNRMC,130613.800,A,2207.2612,S,05124.5615,W,7.16,42.45,151218,,,A*4D, 32.50, 37, 32, 0, 0, 0, 0
K00150.DAT, 782267, 5.00, 1.20, -1, 782172, 15.12.2018 12:52:31, $GNRMC,130618.800,A,2207.2634,S,05124.5534,W,6.32,120.25,151218,,,A*76, 32.50, 37, 32, 0, 0, 0, 0
K00151.DAT, 787267, 5.00, 1.20, -1, 787173, 15.12.2018 12:52:31, $GNRMC,130623.800,A,2207.2659,S,05124.5452,W,6.64,122.40,151218,,,A*76, 32.56, 37, 32, 0, 0, 0, 0
K00152.DAT, 792267, 5.00, 1.20, -1, 792172, 15.12.2018 12:52:31, $GNRMC,130628.800,A,2207.2702,S,05124.5355,W,8.21,114.85,151218,,,A*71, 32.56, 37, 32, 0, 0, 0, 0
K00153.DAT, 797267, 5.00, 1.20, -1, 797170, 15.12.2018 12:52:31, $GNRMC,130633.800,A,2207.2732,S,05124.5256,W,7.16,117.23,151218,,,A*7E, 32.62, 37, 31, 0, 0, 0, 0
K00154.DAT, 802267, 5.00, 1.20, -1, 802173, 15.12.2018 12:52:31, $GNRMC,130638.800,A,2207.2773,S,05124.5155,W,5.17,111.08,151218,,,A*7C, 32.62, 37, 32, 0, 0, 0, 0
K00155.DAT, 807267, 5.00, 1.20, -1, 807176, 15.12.2018 12:52:31, $GNRMC,130643.800,A,2207.2821,S,05124.5039,W,7.07,114.35,151218,,,A*7B, 32.62, 37, 31, 0, 0, 0, 0
K00156.DAT, 812267, 5.00, 1.20, -1, 812170, 15.12.2018 12:52:31, $GNRMC,130648.800,A,2207.2862,S,05124.4944,W,7.42,119.02,151218,,,A*7D, 32.69, 37, 32, 0, 0, 0, 0
K00157.DAT, 817267, 5.00, 1.20, -1, 817173, 15.12.2018 12:52:31, $GNRMC,130653.800,A,2207.2902,S,05124.4840,W,6.56,112.69,151218,,,A*77, 32.69, 37, 32, 0, 0, 0, 0
K00158.DAT, 822267, 5.00, 1.20, -1, 822173, 15.12.2018 12:52:31, $GNRMC,130658.800,A,2207.2943,S,05124.4736,W,7.22,110.32,151218,,,A*79, 32.75, 37, 32, 0, 0, 0, 0
K00159.DAT, 827267, 5.00, 1.20, -1, 827173, 15.12.2018 12:52:31, $GNRMC,130703.800,A,2207.2984,S,05124.4629,W,7.11,112.49,151218,,,A*7C, 32.75, 37, 32, 0, 0, 0, 0
K00160.DAT, 832267, 5.00, 1.20, -1, 832167, 15.12.2018 12:52:31, $GNRMC,130708.800,A,2207.3028,S,05124.4520,W,7.67,108.41,151218,,,A*71, 32.75, 37, 32, 0, 0, 0, 0
K00161.DAT, 837280, 5.00, 1.20, -1, 837173, 15.12.2018 12:52:31, $GNRMC,130713.800,A,2207.3075,S,05124.4420,W,7.10,115.30,151218,,,A*78, 32.81, 37, 32, 0, 0, 0, 0
K00162.DAT, 842284, 5.00, 1.20, -1, 842172, 15.12.2018 12:52:31, $GNRMC,130718.800,A,2207.3133,S,05124.4326,W,7.36,119.56,151218,,,A*79, 32.81, 37, 32, 0, 0, 0, 0
K00163.DAT, 847284, 5.00, 1.20, -1, 847176, 15.12.2018 12:52:31, $GNRMC,130723.800,A,2207.3188,S,05124.4245,W,7.81,124.27,151218,,,A*71, 32.87, 37, 32, 0, 0, 0, 0
K00164.DAT, 852284, 5.00, 1.20, -1, 852173, 15.12.2018 12:52:31, $GNRMC,130728.800,A,2207.3250,S,05124.4156,W,7.34,121.47,151218,,,A*70, 32.87, 37, 32, 0, 0, 0, 0
K00165.DAT, 857284, 5.00, 1.20, -1, 857173, 15.12.2018 12:52:31, $GNRMC,130733.800,A,2207.3270,S,05124.4100,W,1.32,80.46,151218,,,A*40, 32.87, 37, 32, 0, 0, 0, 0
K00166.DAT, 862284, 5.00, 1.20, -1, 862173, 15.12.2018 12:52:31, $GNRMC,130738.800,A,2207.3222,S,05124.4108,W,5.73,339.67,151218,,,A*77, 32.94, 37, 33, 0, 0, 0, 0
K00167.DAT, 867284, 5.00, 1.20, -1, 867169, 15.12.2018 12:52:31, $GNRMC,130743.800,A,2207.3115,S,05124.4131,W,8.23,341.65,151218,,,A*73, 32.94, 37, 32, 0, 0, 0, 0
K00168.DAT, 872294, 5.00, 1.20, -1, 872176, 15.12.2018 12:52:31, $GNRMC,130748.800,A,2207.3066,S,05124.4124,W,0.71,222.21,151218,,,A*72, 33.00, 37, 32, 0, 0, 0, 0
K00169.DAT, 877284, 5.00, 1.20, -1, 877175, 15.12.2018 12:52:31, $GNRMC,130753.800,A,2207.3138,S,05124.4147,W,7.89,199.73,151218,,,A*73, 33.00, 37, 32, 0, 0, 0, 0
K00170.DAT, 882284, 5.00, 1.20, -1, 882173, 15.12.2018 12:52:31, $GNRMC,130758.800,A,2207.3223,S,05124.4188,W,7.13,200.44,151218,,,A*76, 33.00, 38, 32, 0, 0, 0, 0
K00171.DAT, 887284, 5.00, 1.20, -1, 887177, 15.12.2018 12:52:31, $GNRMC,130803.800,A,2207.3301,S,05124.4233,W,6.51,205.37,151218,,,A*73, 33.06, 37, 32, 0, 0, 0, 0
K00172.DAT, 892284, 5.00, 1.20, -1, 892174, 15.12.2018 12:52:31, $GNRMC,130808.800,A,2207.3408,S,05124.4283,W,8.44,205.99,151218,,,A*73, 33.06, 38, 33, 0, 0, 0, 0
K00173.DAT, 897286, 5.00, 1.20, -1, 897170, 15.12.2018 12:52:31, $GNRMC,130813.800,A,2207.3511,S,05124.4334,W,7.77,201.22,151218,,,A*76, 33.12, 38, 33, 0, 0, 0, 0
K00174.DAT, 902286, 5.00, 1.20, -1, 902173, 15.12.2018 12:52:31, $GNRMC,130818.800,A,2207.3605,S,05124.4378,W,6.92,203.39,151218,,,A*71, 33.12, 38, 33, 0, 0, 0, 0
K00175.DAT, 907286, 5.00, 1.20, -1, 907170, 15.12.2018 12:52:31, $GNRMC,130823.800,A,2207.3698,S,05124.4429,W,7.50,205.29,151218,,,A*76, 33.12, 37, 32, 0, 0, 0, 0
K00176.DAT, 912296, 5.00, 1.20, -1, 912169, 15.12.2018 12:52:31, $GNRMC,130828.800,A,2207.3753,S,05124.4476,W,4.23,262.26,151218,,,A*78, 33.19, 38, 33, 0, 0, 0, 0
K00177.DAT, 917286, 5.00, 1.20, -1, 917173, 15.12.2018 12:52:31, $GNRMC,130833.800,A,2207.3721,S,05124.4561,W,6.47,298.15,151218,,,A*75, 33.19, 38, 32, 0, 0, 0, 0
K00178.DAT, 922286, 5.00, 1.20, -1, 922172, 15.12.2018 12:52:31, $GNRMC,130838.800,A,2207.3644,S,05124.4642,W,4.90,297.16,151218,,,A*7A, 33.25, 37, 33, 0, 0, 0, 0
K00179.DAT, 927286, 5.00, 1.20, -1, 927175, 15.12.2018 12:52:31, $GNRMC,130843.800,A,2207.3497,S,05124.4626,W,6.36,16.91,151218,,,A*42, 33.25, 37, 33, 0, 0, 0, 0
K00180.DAT, 932286, 5.00, 1.20, -1, 932173, 15.12.2018 12:52:31, $GNRMC,130848.800,A,2207.3400,S,05124.4575,W,7.49,24.83,151218,,,A*49, 33.25, 37, 33, 0, 0, 0, 0
K00181.DAT, 937286, 5.00, 1.20, -1, 937173, 15.12.2018 12:52:31, $GNRMC,130853.800,A,2207.3272,S,05124.4536,W,9.10,30.32,151218,,,A*4A, 33.31, 38, 33, 0, 0, 0, 0
K00182.DAT, 942286, 5.00, 1.20, -1, 942175, 15.12.2018 12:52:31, $GNRMC,130858.800,A,2207.3172,S,05124.4505,W,8.16,19.58,151218,,,A*42, 33.31, 37, 33, 0, 0, 0, 0
K00183.DAT, 947286, 5.00, 1.20, -1, 947175, 15.12.2018 12:52:31, $GNRMC,130903.800,A,2207.3121,S,05124.4451,W,7.54,26.76,151218,,,A*42, 33.31, 38, 33, 0, 0, 0, 0
K00184.DAT, 952286, 5.00, 1.20, -1, 952178, 15.12.2018 12:52:31, $GNRMC,130908.800,A,2207.3093,S,05124.4385,W,6.81,29.53,151218,,,A*4E, 33.37, 38, 33, 0, 0, 0, 0
K00185.DAT, 1053718, 5.00, 1.20, -1, 1053574, 15.12.2018 12:52:31, $GNRMC,131050.200,A,2207.2835,S,05124.4788,W,7.79,30.15,151218,,,A*41, 33.75, 39, 33, 0, 0, 0, 0
K00186.DAT, 1058718, 5.00, 1.20, -1, 1058574, 15.12.2018 12:52:31, $GNRMC,131055.200,A,2207.2764,S,05124.4743,W,7.32,28.69,151218,,,A*45, 33.81, 39, 34, 0, 0, 0, 0
K00187.DAT, 1063708, 5.00, 1.20, -1, 1063577, 15.12.2018 12:52:31, $GNRMC,131100.200,A,2207.2706,S,05124.4734,W,4.36,329.48,151218,,,A*76, 33.81, 39, 33, 0, 0, 0, 0
K00188.DAT, 1068708, 5.00, 1.20, -1, 1068571, 15.12.2018 12:52:31, $GNRMC,131105.200,A,2207.2684,S,05124.4799,W,5.84,289.86,151218,,,A*7E, 33.81, 39, 33, 0, 0, 0, 0
K00189.DAT, 1073708, 5.00, 1.20, -1, 1073577, 15.12.2018 12:52:31, $GNRMC,131110.200,A,2207.2659,S,05124.4902,W,4.54,245.95,151218,,,A*78, 33.87, 39, 33, 0, 0, 0, 0
K00190.DAT, 1078715, 5.00, 1.20, -1, 1078578, 15.12.2018 12:52:31, $GNRMC,131115.200,A,2207.2728,S,05124.4957,W,5.36,199.58,151218,,,A*7C, 33.87, 39, 33, 0, 0, 0, 0
K00191.DAT, 1083715, 5.00, 1.20, -1, 1083577, 15.12.2018 12:52:31, $GNRMC,131120.200,A,2207.2837,S,05124.5005,W,7.05,202.67,151218,,,A*7B, 33.87, 39, 33, 0, 0, 0, 0
K00192.DAT, 1088722, 5.00, 1.20, -1, 1088578, 15.12.2018 12:52:31, $GNRMC,131125.200,A,2207.2945,S,05124.5057,W,7.19,205.20,151218,,,A*74, 33.87, 39, 33, 0, 0, 0, 0
K00193.DAT, 1093722, 5.00, 1.20, -1, 1093581, 15.12.2018 12:52:31, $GNRMC,131130.200,A,2207.3065,S,05124.5105,W,7.96,209.73,151218,,,A*71, 33.94, 39, 33, 0, 0, 0, 0
K00194.DAT, 1098722, 5.00, 1.20, -1, 1098578, 15.12.2018 12:52:31, $GNRMC,131135.200,A,2207.3148,S,05124.5182,W,8.56,204.96,151218,,,A*70, 33.94, 39, 33, 0, 0, 0, 0
K00195.DAT, 1103722, 5.00, 1.20, -1, 1103571, 15.12.2018 12:52:31, $GNRMC,131140.200,A,2207.3222,S,05124.5226,W,7.23,200.92,151218,,,A*7D, 33.94, 39, 33, 0, 0, 0, 0
K00196.DAT, 1108732, 5.00, 1.20, -1, 1108577, 15.12.2018 12:52:31, $GNRMC,131145.200,A,2207.3306,S,05124.5268,W,7.38,206.90,151218,,,A*7B, 34.00, 39, 33, 0, 0, 0, 0
K00197.DAT, 1113722, 5.00, 1.20, -1, 1113578, 15.12.2018 12:52:31, $GNRMC,131150.200,A,2207.3337,S,05124.5337,W,6.73,284.07,151218,,,A*7C, 34.00, 39, 34, 0, 0, 0, 0
K00198.DAT, 1118729, 5.00, 1.20, -1, 1118577, 15.12.2018 12:52:31, $GNRMC,131155.200,A,2207.3293,S,05124.5416,W,7.25,298.06,151218,,,A*7C, 34.00, 39, 34, 0, 0, 0, 0
K00199.DAT, 1123736, 5.00, 1.20, -1, 1123577, 15.12.2018 12:52:31, $GNRMC,131200.200,A,2207.3245,S,05124.5483,W,4.85,320.40,151218,,,A*71, 34.06, 39, 34, 0, 0, 0, 0
K00200.DAT, 1128736, 5.00, 1.20, -1, 1128574, 15.12.2018 12:52:31, $GNRMC,131205.200,A,2207.3164,S,05124.5457,W,5.63,23.85,151218,,,A*4D, 34.06, 39, 34, 0, 0, 0, 0
K00201.DAT, 1133736, 5.00, 1.20, -1, 1133574, 15.12.2018 12:52:31, $GNRMC,131210.200,A,2207.3064,S,05124.5408,W,7.52,27.54,151218,,,A*4A, 34.06, 39, 33, 0, 0, 0, 0
K00202.DAT, 1138743, 5.00, 1.20, -1, 1138574, 15.12.2018 12:52:31, $GNRMC,131215.200,A,2207.2962,S,05124.5358,W,7.05,25.55,151218,,,A*42, 34.12, 39, 33, 0, 0, 0, 0
K00203.DAT, 1143750, 5.00, 1.20, -1, 1143577, 15.12.2018 12:52:31, $GNRMC,131220.200,A,2207.2866,S,05124.5311,W,7.11,24.13,151218,,,A*4A, 34.12, 39, 33, 0, 0, 0, 0
K00204.DAT, 1148750, 5.00, 1.20, -1, 1148574, 15.12.2018 12:52:31, $GNRMC,131225.200,A,2207.2769,S,05124.5264,W,7.40,23.30,151218,,,A*4E, 34.12, 39, 33, 0, 0, 0, 0
K00205.DAT, 1153757, 5.00, 1.20, -1, 1153777, 15.12.2018 12:52:31, $GNRMC,131230.400,A,2207.2670,S,05124.5206,W,8.31,33.06,151218,,,A*4C, 34.12, 39, 34, 0, 0, 0, 0
K00206.DAT, 1158774, 5.00, 1.20, -1, 1158773, 15.12.2018 12:52:31, $GNRMC,131235.400,A,2207.2588,S,05124.5166,W,5.12,21.93,151218,,,A*4B, 34.19, 39, 33, 0, 0, 0, 0
K00207.DAT, 1163764, 5.00, 1.20, -1, 1163777, 15.12.2018 12:52:31, $GNRMC,131240.400,A,2207.2545,S,05124.5215,W,6.30,296.19,151218,,,A*70, 34.19, 39, 34, 0, 0, 0, 0
K00208.DAT, 1168771, 5.00, 1.20, -1, 1168774, 15.12.2018 12:52:31, $GNRMC,131245.400,A,2207.2528,S,05124.5320,W,7.34,287.24,151218,,,A*72, 34.19, 39, 33, 0, 0, 0, 0
K00209.DAT, 1173778, 5.00, 1.20, -1, 1173774, 15.12.2018 12:52:31, $GNRMC,131250.400,A,2207.2572,S,05124.5391,W,6.92,214.14,151218,,,A*77, 34.25, 39, 34, 0, 0, 0, 0
K00210.DAT, 1178778, 5.00, 1.20, -1, 1178777, 15.12.2018 12:52:31, $GNRMC,131255.400,A,2207.2672,S,05124.5423,W,7.29,202.54,151218,,,A*7D, 34.25, 39, 34, 0, 0, 0, 0
K00211.DAT, 1183785, 5.00, 1.20, -1, 1183777, 15.12.2018 12:52:31, $GNRMC,131300.400,A,2207.2778,S,05124.5478,W,7.69,206.44,151218,,,A*78, 34.25, 39, 34, 0, 0, 0, 0
K00212.DAT, 1188792, 5.00, 1.20, -1, 1188779, 15.12.2018 12:52:31, $GNRMC,131305.400,A,2207.2879,S,05124.5543,W,8.74,208.41,151218,,,A*72, 34.25, 39, 34, 0, 0, 0, 0
K00213.DAT, 1193792, 5.00, 1.20, -1, 1193781, 15.12.2018 12:52:31, $GNRMC,131310.400,A,2207.2980,S,05124.5598,W,8.07,205.00,151218,,,A*7B, 34.31, 39, 34, 0, 0, 0, 0
K00214.DAT, 1198798, 5.00, 1.20, -1, 1198781, 15.12.2018 12:52:31, $GNRMC,131315.400,A,2207.3086,S,05124.5649,W,7.47,202.64,151218,,,A*71, 34.31, 39, 34, 0, 0, 0, 0
K00215.DAT, 1203798, 5.00, 1.20, -1, 1203781, 15.12.2018 12:52:31, $GNRMC,131320.400,A,2207.3180,S,05124.5697,W,8.46,206.28,151218,,,A*71, 34.31, 39, 34, 0, 0, 0, 0
K00216.DAT, 1208808, 5.00, 1.20, -1, 1208777, 15.12.2018 12:52:31, $GNRMC,131325.400,A,2207.3183,S,05124.5741,W,6.30,275.11,151218,,,A*7C, 34.37, 39, 34, 0, 0, 0, 0
K00217.DAT, 1213798, 5.00, 1.20, -1, 1213778, 15.12.2018 12:52:31, $GNRMC,131330.400,A,2207.3130,S,05124.5821,W,7.04,309.20,151218,,,A*77, 34.37, 39, 33, 0, 0, 0, 0
K00218.DAT, 1218798, 5.00, 1.20, -1, 1218779, 15.12.2018 12:52:31, $GNRMC,131335.400,A,2207.3078,S,05124.5884,W,4.49,324.63,151218,,,A*72, 34.37, 39, 34, 0, 0, 0, 0
K00219.DAT, 1223798, 5.00, 1.20, -1, 1223777, 15.12.2018 12:52:31, $GNRMC,131340.400,A,2207.3006,S,05124.5863,W,5.00,24.80,151218,,,A*42, 34.44, 39, 34, 0, 0, 0, 0
K00220.DAT, 1228798, 5.00, 1.20, -1, 1228773, 15.12.2018 12:52:31, $GNRMC,131345.400,A,2207.2918,S,05124.5806,W,7.11,23.33,151218,,,A*4E, 34.44, 39, 33, 0, 0, 0, 0
K00221.DAT, 1233805, 5.00, 1.20, -1, 1233775, 15.12.2018 12:52:31, $GNRMC,131350.400,A,2207.2826,S,05124.5756,W,7.40,25.26,151218,,,A*4A, 34.44, 39, 33, 0, 0, 0, 0
K00222.DAT, 1238805, 5.00, 1.20, -1, 1238775, 15.12.2018 12:52:31, $GNRMC,131355.400,A,2207.2731,S,05124.5714,W,7.27,24.61,151218,,,A*43, 34.44, 39, 34, 0, 0, 0, 0
K00223.DAT, 1243812, 5.00, 1.20, -1, 1243772, 15.12.2018 12:52:31, $GNRMC,131400.400,A,2207.2640,S,05124.5672,W,6.58,29.52,151218,,,A*46, 34.50, 39, 34, 0, 0, 0, 0
K00224.DAT, 1248819, 5.00, 1.20, -1, 1248778, 15.12.2018 12:52:31, $GNRMC,131405.400,A,2207.2651,S,05124.5621,W,5.24,127.16,151218,,,A*72, 34.50, 39, 34, 0, 0, 0, 0
K00225.DAT, 1253819, 5.00, 1.20, -1, 1253778, 15.12.2018 12:52:31, $GNRMC,131410.400,A,2207.2700,S,05124.5540,W,7.57,127.58,151218,,,A*7B, 34.50, 39, 34, 0, 0, 0, 0
K00226.DAT, 1258826, 5.00, 1.20, -1, 1258775, 15.12.2018 12:52:31, $GNRMC,131415.400,A,2207.2764,S,05124.5453,W,6.88,128.13,151218,,,A*7C, 34.56, 39, 34, 0, 0, 0, 0
K00227.DAT, 1263826, 5.00, 1.20, -1, 1263772, 15.12.2018 12:52:31, $GNRMC,131420.400,A,2207.2824,S,05124.5362,W,7.77,125.66,151218,,,A*7A, 34.56, 39, 34, 0, 0, 0, 0
K00228.DAT, 1268826, 5.00, 1.20, -1, 1268778, 15.12.2018 12:52:31, $GNRMC,131425.400,A,2207.2891,S,05124.5285,W,7.19,125.75,151218,,,A*73, 34.56, 39, 34, 0, 0, 0, 0
K00229.DAT, 1273832, 5.00, 1.20, -1, 1273786, 15.12.2018 12:52:31, $GNRMC,131430.400,A,2207.2953,S,05124.5206,W,7.67,129.97,151218,,,A*7A, 34.56, 39, 34, 0, 0, 0, 0
K00230.DAT, 1278849, 5.00, 1.20, -1, 1278779, 15.12.2018 12:52:31, $GNRMC,131435.400,A,2207.3028,S,05124.5123,W,6.95,129.80,151218,,,A*75, 34.62, 39, 34, 0, 0, 0, 0
K00231.DAT, 1283839, 5.00, 1.20, -1, 1283780, 15.12.2018 12:52:31, $GNRMC,131440.400,A,2207.3102,S,05124.5037,W,6.62,130.44,151218,,,A*72, 34.62, 39, 34, 0, 0, 0, 0
K00232.DAT, 1288839, 5.00, 1.20, -1, 1288778, 15.12.2018 12:52:31, $GNRMC,131445.400,A,2207.3174,S,05124.4957,W,7.92,132.75,151218,,,A*76, 34.62, 39, 34, 0, 0, 0, 0
K00233.DAT, 1293846, 5.00, 1.20, -1, 1293777, 15.12.2018 12:52:31, $GNRMC,131450.400,A,2207.3247,S,05124.4879,W,7.82,133.24,151218,,,A*78, 34.69, 39, 34, 0, 0, 0, 0
K00234.DAT, 1298853, 5.00, 1.20, -1, 1298786, 15.12.2018 12:52:31, $GNRMC,131455.400,A,2207.3292,S,05124.4835,W,1.19,124.20,151218,,,A*7B, 34.69, 39, 34, 0, 0, 0, 0
K00235.DAT, 1303853, 5.00, 1.20, -1, 1303788, 15.12.2018 12:52:31, $GNRMC,131500.400,A,2207.3292,S,05124.4837,W,0.08,124.20,151218,,,A*79, 34.69, 39, 34, 0, 0, 0, 0
K00236.DAT, 1308853, 5.00, 1.20, -1, 1308784, 15.12.2018 12:52:31, $GNRMC,131505.400,A,2207.3299,S,05124.4838,W,0.35,124.20,151218,,,A*76, 34.75, 39, 34, 0, 0, 0, 0
K00237.DAT, 1313860, 5.00, 1.20, -1, 1313780, 15.12.2018 12:52:31, $GNRMC,131510.400,A,2207.3305,S,05124.4838,W,0.38,124.20,151218,,,A*7B, 34.75, 39, 34, 0, 0, 0, 0
K00238.DAT, 1318860, 5.00, 1.20, -1, 1318782, 15.12.2018 12:52:31, $GNRMC,131515.400,A,2207.3314,S,05124.4825,W,0.35,124.20,151218,,,A*7F, 34.75, 39, 34, 0, 0, 0, 0
K00239.DAT, 1323867, 5.00, 1.20, -1, 1323782, 15.12.2018 12:52:31, $GNRMC,131520.400,A,2207.3315,S,05124.4825,W,0.21,124.20,151218,,,A*7D, 34.81, 39, 34, 0, 0, 0, 0
K00240.DAT, 1328872, 5.00, 1.20, -1, 1328782, 15.12.2018 12:52:31, $GNRMC,131525.400,A,2207.3313,S,05124.4824,W,0.21,124.20,151218,,,A*7F, 34.81, 40, 34, 0, 0, 0, 0
K00241.DAT, 1333872, 5.00, 1.20, -1, 1333782, 15.12.2018 12:52:31, $GNRMC,131530.400,A,2207.3313,S,05124.4823,W,0.67,124.20,151218,,,A*7E, 34.81, 39, 34, 0, 0, 0, 0
K00242.DAT, 1338879, 5.00, 1.20, -1, 1338782, 15.12.2018 12:52:31, $GNRMC,131535.400,A,2207.3308,S,05124.4829,W,0.25,124.20,151218,,,A*7D, 34.81, 39, 34, 0, 0, 0, 0
K00243.DAT, 1343887, 5.00, 1.20, -1, 1343782, 15.12.2018 12:52:31, $GNRMC,131540.400,A,2207.3303,S,05124.4829,W,0.58,124.20,151218,,,A*7E, 34.87, 39, 34, 0, 0, 0, 0
K00244.DAT, 1348887, 5.00, 1.20, -1, 1348783, 15.12.2018 12:52:31, $GNRMC,131545.400,A,2207.3306,S,05124.4832,W,0.78,124.20,151218,,,A*76, 34.87, 39, 34, 0, 0, 0, 0
K00245.DAT, 1353887, 5.00, 1.20, -1, 1353780, 15.12.2018 12:52:31, $GNRMC,131550.400,A,2207.3306,S,05124.4844,W,0.27,124.20,151218,,,A*79, 34.87, 40, 34, 0, 0, 0, 0
K00246.DAT, 1358895, 5.00, 1.20, -1, 1358781, 15.12.2018 12:52:31, $GNRMC,131555.400,A,2207.3311,S,05124.4847,W,0.64,124.20,151218,,,A*7E, 34.94, 39, 34, 0, 0, 0, 0
K00247.DAT, 1363895, 5.00, 1.20, -1, 1363783, 15.12.2018 12:52:31, $GNRMC,131600.400,A,2207.3316,S,05124.4842,W,0.26,124.20,151218,,,A*79, 34.94, 40, 34, 0, 0, 0, 0
K00248.DAT, 1368895, 5.00, 1.20, -1, 1368781, 15.12.2018 12:52:31, $GNRMC,131605.400,A,2207.3319,S,05124.4850,W,0.35,124.20,151218,,,A*72, 34.94, 39, 34, 0, 0, 0, 0
K00249.DAT, 1373905, 5.00, 1.20, -1, 1373785, 15.12.2018 12:52:31, $GNRMC,131610.400,A,2207.3309,S,05124.4866,W,0.82,124.20,151218,,,A*7E, 35.00, 40, 34, 0, 0, 0, 0
K00250.DAT, 1378895, 5.00, 1.20, -1, 1378780, 15.12.2018 12:52:31, $GNRMC,131615.400,A,2207.3308,S,05124.4861,W,0.51,124.20,151218,,,A*73, 35.00, 40, 34, 0, 0, 0, 0
K00251.DAT, 1383906, 5.00, 1.20, -1, 1383783, 15.12.2018 12:52:31, $GNRMC,131620.400,A,2207.3308,S,05124.4867,W,0.48,124.20,151218,,,A*7B, 35.00, 39, 34, 0, 0, 0, 0
K00252.DAT, 1388913, 5.00, 1.20, -1, 1388783, 15.12.2018 12:52:31, $GNRMC,131625.400,A,2207.3311,S,05124.4872,W,0.54,124.20,151218,,,A*7F, 35.06, 40, 34, 0, 0, 0, 0
K00253.DAT, 1393913, 5.00, 1.20, -1, 1393781, 15.12.2018 12:52:31, $GNRMC,131630.400,A,2207.3315,S,05124.4875,W,0.06,124.20,151218,,,A*7F, 35.06, 40, 34, 0, 0, 0, 0
K00254.DAT, 1398920, 5.00, 1.20, -1, 1398783, 15.12.2018 12:52:31, $GNRMC,131635.400,A,2207.3297,S,05124.4879,W,0.06,124.20,151218,,,A*7D, 35.06, 40, 34, 0, 0, 0, 0
K00255.DAT, 1403927, 5.00, 1.20, -1, 1403783, 15.12.2018 12:52:31, $GNRMC,131640.400,A,2207.3311,S,05124.4874,W,0.07,124.20,151218,,,A*7C, 35.06, 40, 34, 0, 0, 0, 0
K00256.DAT, 1408927, 5.00, 1.20, -1, 1408783, 15.12.2018 12:52:31, $GNRMC,131645.400,A,2207.3326,S,05124.4848,W,0.77,124.20,151218,,,A*75, 35.12, 39, 34, 0, 0, 0, 0
K00257.DAT, 1413927, 5.00, 1.20, -1, 1413783, 15.12.2018 12:52:31, $GNRMC,131650.400,A,2207.3339,S,05124.4823,W,0.36,124.20,151218,,,A*77, 35.12, 39, 34, 0, 0, 0, 0
K00258.DAT, 1418927, 5.00, 1.20, -1, 1418787, 15.12.2018 12:52:31, $GNRMC,131655.400,A,2207.3343,S,05124.4806,W,0.45,124.20,151218,,,A*7C, 35.19, 40, 34, 0, 0, 0, 0
K00259.DAT, 1423927, 5.00, 1.20, -1, 1423783, 15.12.2018 12:52:31, $GNRMC,131700.400,A,2207.3340,S,05124.4811,W,0.31,124.20,151218,,,A*7B, 35.19, 39, 34, 0, 0, 0, 0
K00260.DAT, 1428927, 5.00, 1.20, -1, 1428783, 15.12.2018 12:52:31, $GNRMC,131705.400,A,2207.3347,S,05124.4813,W,0.05,124.20,151218,,,A*7C, 35.19, 40, 34, 0, 0, 0, 0
K00261.DAT, 1433937, 5.00, 1.20, -1, 1433783, 15.12.2018 12:52:31, $GNRMC,131710.400,A,2207.3357,S,05124.4821,W,0.26,124.20,151218,,,A*79, 35.25, 39, 34, 0, 0, 0, 0
K00262.DAT, 1438927, 5.00, 1.20, -1, 1438783, 15.12.2018 12:52:31, $GNRMC,131715.400,A,2207.3359,S,05124.4824,W,0.20,124.20,151218,,,A*71, 35.25, 40, 34, 0, 0, 0, 0
K00263.DAT, 1443934, 5.00, 1.20, -1, 1443783, 15.12.2018 12:52:31, $GNRMC,131720.400,A,2207.3362,S,05124.4827,W,0.07,124.20,151218,,,A*79, 35.25, 40, 34, 0, 0, 0, 0
K00264.DAT, 1448941, 5.00, 1.20, -1, 1448783, 15.12.2018 12:52:31, $GNRMC,131725.400,A,2207.3359,S,05124.4830,W,0.17,124.20,151218,,,A*73, 35.31, 40, 34, 0, 0, 0, 0
K00265.DAT, 1453941, 5.00, 1.20, -1, 1453783, 15.12.2018 12:52:31, $GNRMC,131730.400,A,2207.3350,S,05124.4840,W,0.11,124.20,151218,,,A*7F, 35.31, 40, 34, 0, 0, 0, 0
K00266.DAT, 1458948, 5.00, 1.20, -1, 1458783, 15.12.2018 12:52:31, $GNRMC,131735.400,A,2207.3352,S,05124.4841,W,0.61,124.20,151218,,,A*7E, 35.37, 40, 34, 0, 0, 0, 0
K00267.DAT, 1463956, 5.00, 1.20, -1, 1463785, 15.12.2018 12:52:31, $GNRMC,131740.400,A,2207.3354,S,05124.4840,W,0.44,124.20,151218,,,A*7C, 35.37, 40, 34, 0, 0, 0, 0
K00268.DAT, 1468956, 5.00, 1.20, -1, 1468783, 15.12.2018 12:52:31, $GNRMC,131745.400,A,2207.3355,S,05124.4837,W,0.55,124.20,151218,,,A*78, 35.37, 40, 34, 0, 0, 0, 0
K00269.DAT, 1473973, 5.00, 1.20, -1, 1473985, 15.12.2018 12:52:31, $GNRMC,131750.600,A,2207.3347,S,05124.4835,W,0.47,124.20,151218,,,A*7C, 35.44, 40, 34, 0, 0, 0, 0
K00270.DAT, 1478963, 5.00, 1.20, -1, 1478983, 15.12.2018 12:52:31, $GNRMC,131755.600,A,2207.3353,S,05124.4834,W,0.55,124.20,151218,,,A*7E, 35.44, 40, 34, 0, 0, 0, 0
K00271.DAT, 1483970, 5.00, 1.20, -1, 1483985, 15.12.2018 12:52:31, $GNRMC,131800.600,A,2207.3356,S,05124.4837,W,0.12,124.20,151218,,,A*74, 35.50, 40, 34, 0, 0, 0, 0
K00272.DAT, 1488970, 5.00, 1.20, -1, 1488983, 15.12.2018 12:52:31, $GNRMC,131805.600,A,2207.3357,S,05124.4840,W,0.37,124.20,151218,,,A*77, 35.50, 40, 35, 0, 0, 0, 0
K00273.DAT, 1493977, 5.00, 1.20, -1, 1493983, 15.12.2018 12:52:31, $GNRMC,131810.600,A,2207.3353,S,05124.4833,W,0.30,124.20,151218,,,A*74, 35.56, 40, 35, 0, 0, 0, 0
K00274.DAT, 1498984, 5.00, 1.20, -1, 1498984, 15.12.2018 12:52:31, $GNRMC,131815.600,A,2207.3357,S,05124.4814,W,0.31,124.20,151218,,,A*71, 35.56, 40, 34, 0, 0, 0, 0
K00275.DAT, 1503984, 5.00, 1.20, -1, 1503986, 15.12.2018 12:52:31, $GNRMC,131820.600,A,2207.3358,S,05124.4803,W,0.18,124.20,151218,,,A*75, 35.56, 40, 35, 0, 0, 0, 0
K00276.DAT, 1508991, 5.00, 1.20, -1, 1508986, 15.12.2018 12:52:31, $GNRMC,131825.600,A,2207.3356,S,05124.4796,W,0.15,124.20,151218,,,A*70, 35.62, 40, 34, 0, 0, 0, 0
K00277.DAT, 1513998, 5.00, 1.20, -1, 1513984, 15.12.2018 12:52:31, $GNRMC,131830.600,A,2207.3354,S,05124.4794,W,0.25,124.20,151218,,,A*77, 35.62, 40, 35, 0, 0, 0, 0
K00278.DAT, 1519008, 5.00, 1.20, -1, 1518986, 15.12.2018 12:52:31, $GNRMC,131835.600,A,2207.3352,S,05124.4788,W,0.30,124.20,151218,,,A*7D, 35.69, 40, 34, 0, 0, 0, 0
K00279.DAT, 1523998, 5.00, 1.20, -1, 1523982, 15.12.2018 12:52:31, $GNRMC,131840.600,A,2207.3348,S,05124.4783,W,0.49,124.20,151218,,,A*71, 35.69, 40, 35, 0, 0, 0, 0
K00280.DAT, 1528998, 5.00, 1.20, -1, 1528986, 15.12.2018 12:52:31, $GNRMC,131845.600,A,2207.3350,S,05124.4782,W,0.24,124.20,151218,,,A*77, 35.75, 40, 35, 0, 0, 0, 0
K00281.DAT, 1534013, 5.00, 1.20, -1, 1533983, 15.12.2018 12:52:31, $GNRMC,131850.600,A,2207.3348,S,05124.4784,W,0.11,124.20,151218,,,A*7A, 35.75, 40, 35, 0, 0, 0, 0
K00282.DAT, 1539013, 5.00, 1.20, -1, 1538981, 15.12.2018 12:52:31, $GNRMC,131855.600,A,2207.3345,S,05124.4805,W,0.42,124.20,151218,,,A*72, 35.75, 40, 35, 0, 0, 0, 0
K00283.DAT, 1544024, 5.00, 1.20, -1, 1543983, 15.12.2018 12:52:31, $GNRMC,131900.600,A,2207.3345,S,05124.4808,W,0.52,124.20,151218,,,A*7F, 35.81, 40, 35, 0, 0, 0, 0
K00284.DAT, 1549024, 5.00, 1.20, -1, 1548981, 15.12.2018 12:52:31, $GNRMC,131905.600,A,2207.3342,S,05124.4806,W,0.47,150.42,151218,,,A*70, 35.81, 40, 34, 0, 0, 0, 0
K00285.DAT, 1554041, 5.00, 1.20, -1, 1553981, 15.12.2018 12:52:31, $GNRMC,131910.600,A,2207.3331,S,05124.4805,W,0.45,52.94,151218,,,A*49, 35.87, 40, 34, 0, 0, 0, 0
K00286.DAT, 1559031, 5.00, 1.20, -1, 1558981, 15.12.2018 12:52:31, $GNRMC,131915.600,A,2207.3328,S,05124.4802,W,0.50,87.91,151218,,,A*4A, 35.87, 40, 35, 0, 0, 0, 0
K00287.DAT, 1564031, 5.00, 1.20, -1, 1563984, 15.12.2018 12:52:31, $GNRMC,131920.600,A,2207.3328,S,05124.4803,W,0.45,87.91,151218,,,A*49, 35.94, 40, 35, 0, 0, 0, 0
K00288.DAT, 1569038, 5.00, 1.20, -1, 1568985, 15.12.2018 12:52:31, $GNRMC,131925.600,A,2207.3327,S,05124.4809,W,0.35,87.91,151218,,,A*4E, 35.94, 40, 35, 0, 0, 0, 0
K00289.DAT, 1574038, 5.00, 1.20, -1, 1573983, 15.12.2018 12:52:31, $GNRMC,131930.600,A,2207.3323,S,05124.4811,W,0.24,23.68,151218,,,A*4F, 36.00, 40, 35, 0, 0, 0, 0
K00290.DAT, 1579038, 5.00, 1.20, -1, 1578982, 15.12.2018 12:52:31, $GNRMC,131935.600,A,2207.3326,S,05124.4801,W,0.48,132.96,151218,,,A*74, 36.00, 40, 35, 0, 0, 0, 0
K00291.DAT, 1584039, 5.00, 1.20, -1, 1583982, 15.12.2018 12:52:31, $GNRMC,131940.600,A,2207.3323,S,05124.4801,W,0.19,132.96,151218,,,A*77, 36.06, 40, 35, 0, 0, 0, 0
K00292.DAT, 1589050, 5.00, 1.20, -1, 1588982, 15.12.2018 12:52:31, $GNRMC,131945.600,A,2207.3325,S,05124.4807,W,0.30,132.96,151218,,,A*79, 36.06, 40, 36, 0, 0, 0, 0
K00293.DAT, 1594060, 5.00, 1.20, -1, 1593985, 15.12.2018 12:52:31, $GNRMC,131950.600,A,2207.3329,S,05124.4810,W,0.15,132.96,151218,,,A*70, 36.12, 40, 35, 0, 0, 0, 0
K00294.DAT, 1599050, 5.00, 1.20, -1, 1598983, 15.12.2018 12:52:31, $GNRMC,131955.600,A,2207.3324,S,05124.4812,W,0.28,132.96,151218,,,A*74, 36.12, 41, 36, 0, 0, 0, 0
K00295.DAT, 1604057, 5.00, 1.20, -1, 1603981, 15.12.2018 12:52:31, $GNRMC,132000.600,A,2207.3323,S,05124.4811,W,0.67,146.53,151218,,,A*7B, 36.19, 40, 35, 0, 0, 0, 0
K00296.DAT, 1609057, 5.00, 1.20, -1, 1608984, 15.12.2018 12:52:31, $GNRMC,132005.600,A,2207.3321,S,05124.4809,W,0.37,140.86,151218,,,A*7E, 36.19, 40, 35, 0, 0, 0, 0
K00297.DAT, 1614057, 5.00, 1.20, -1, 1613981, 15.12.2018 12:52:31, $GNRMC,132010.600,A,2207.3315,S,05124.4811,W,0.47,14.81,151218,,,A*44, 36.25, 40, 36, 0, 0, 0, 0
K00298.DAT, 1619064, 5.00, 1.20, -1, 1618982, 15.12.2018 12:52:31, $GNRMC,132015.600,A,2207.3316,S,05124.4807,W,0.22,41.25,151218,,,A*48, 36.25, 41, 36, 0, 0, 0, 0
K00299.DAT, 1624064, 5.00, 1.20, -1, 1623986, 15.12.2018 12:52:31, $GNRMC,132020.600,A,2207.3320,S,05124.4795,W,0.63,96.16,151218,,,A*40, 36.31, 40, 35, 0, 0, 0, 0
K00300.DAT, 1629071, 5.00, 1.20, -1, 1628983, 15.12.2018 12:52:31, $GNRMC,132025.600,A,2207.3322,S,05124.4790,W,0.35,98.08,151218,,,A*40, 36.31, 40, 35, 0, 0, 0, 0
K00301.DAT, 1634078, 5.00, 1.20, -1, 1633983, 15.12.2018 12:52:31, $GNRMC,132030.600,A,2207.3326,S,05124.4792,W,0.33,98.08,151218,,,A*44, 36.31, 41, 36, 0, 0, 0, 0
K00302.DAT, 1639078, 5.00, 1.20, -1, 1638984, 15.12.2018 12:52:31, $GNRMC,132035.600,A,2207.3330,S,05124.4792,W,0.11,173.24,151218,,,A*7C, 36.37, 41, 35, 0, 0, 0, 0
K00303.DAT, 1644078, 5.00, 1.20, -1, 1643984, 15.12.2018 12:52:31, $GNRMC,132040.600,A,2207.3322,S,05124.4786,W,0.63,45.81,151218,,,A*46, 36.44, 41, 36, 0, 0, 0, 0
K00304.DAT, 1649085, 5.00, 1.20, -1, 1648984, 15.12.2018 12:52:31, $GNRMC,132045.600,A,2207.3323,S,05124.4784,W,0.10,99.72,151218,,,A*49, 36.44, 40, 35, 0, 0, 0, 0
K00305.DAT, 1654092, 5.00, 1.20, -1, 1653985, 15.12.2018 12:52:31, $GNRMC,132050.600,A,2207.3328,S,05124.4776,W,1.24,152.26,151218,,,A*7A, 36.44, 41, 35, 0, 0, 0, 0
K00306.DAT, 1659092, 5.00, 1.20, -1, 1658983, 15.12.2018 12:52:31, $GNRMC,132055.600,A,2207.3363,S,05124.4750,W,2.38,153.04,151218,,,A*7B, 36.50, 40, 36, 0, 0, 0, 0
K00307.DAT, 1664099, 5.00, 1.20, -1, 1663986, 15.12.2018 12:52:31, $GNRMC,132100.600,A,2207.3370,S,05124.4736,W,0.31,113.25,151218,,,A*74, 36.56, 41, 36, 0, 0, 0, 0
K00308.DAT, 1669106, 5.00, 1.20, -1, 1668987, 15.12.2018 12:52:31, $GNRMC,132105.600,A,2207.3371,S,05124.4737,W,0.20,42.19,151218,,,A*4B, 36.56, 41, 36, 0, 0, 0, 0
K00309.DAT, 1674106, 5.00, 1.20, -1, 1673989, 15.12.2018 12:52:31, $GNRMC,132110.600,A,2207.3369,S,05124.4734,W,0.30,79.54,151218,,,A*45, 36.62, 41, 36, 0, 0, 0, 0
K00310.DAT, 1679113, 5.00, 1.20, -1, 1678990, 15.12.2018 12:52:31, $GNRMC,132115.600,A,2207.3367,S,05124.4729,W,0.40,67.92,151218,,,A*40, 36.62, 41, 36, 0, 0, 0, 0
K00311.DAT, 1684120, 5.00, 1.20, -1, 1683989, 15.12.2018 12:52:31, $GNRMC,132120.600,A,2207.3365,S,05124.4722,W,0.25,66.03,151218,,,A*45, 36.62, 41, 36, 0, 0, 0, 0
K00312.DAT, 1689120, 5.00, 1.20, -1, 1688988, 15.12.2018 12:52:31, $GNRMC,132125.600,A,2207.3362,S,05124.4709,W,0.33,57.47,151218,,,A*4B, 36.69, 41, 36, 0, 0, 0, 0
