% TASKFILE
% Generated: 12/08/2016, 16:05
% Camera Description: RikolaDT-0011
% FPI Identifier: PFPI-006-V073
% Calibration Filename: R-Camera-11-CalibDataHeader-20150826.hdt
% ----------------------------

C0,16246,16629,16490,11081,10.0000,1.0000,0.0000,2
C1,16272,16656,16516,11081,10.0000,1.0000,0.0000,2
C2,16298,16683,16543,11081,10.0000,1.0000,0.0000,2
C3,16323,16710,16568,11081,10.0000,1.0000,0.0000,2
C4,16348,16737,16593,11081,10.0000,1.0000,0.0000,2
C5,16373,16763,16617,11081,10.0000,1.0000,0.0000,2
C6,16398,16790,16642,11081,10.0000,1.0000,0.0000,2
C7,16423,16817,16667,11081,10.0000,1.0000,0.0000,2
C8,16448,16843,16691,11081,10.0000,1.0000,0.0000,2
C9,16473,16870,16716,11081,10.0000,1.0000,0.0000,2
C10,16498,16897,16741,11081,10.0000,1.0000,0.0000,2
C11,16523,16924,16765,11081,10.0000,1.0000,0.0000,2
C12,17412,17834,17659,11081,10.0000,1.0000,0.0000,1
C13,17418,17840,17665,11081,10.0000,1.0000,0.0000,1
C14,17424,17846,17671,11081,10.0000,1.0000,0.0000,1
C15,17430,17852,17677,11081,10.0000,1.0000,0.0000,1
C16,17436,17858,17683,11081,10.0000,1.0000,0.0000,1
C17,17442,17865,17688,11081,10.0000,1.0000,0.0000,1
C18,17447,17871,17694,11081,10.0000,1.0000,0.0000,1
C19,17453,17877,17700,11081,10.0000,1.0000,0.0000,1
C20,17459,17883,17706,11081,10.0000,1.0000,0.0000,1
C21,17465,17889,17712,11081,10.0000,1.0000,0.0000,1
C22,17471,17895,17718,11081,10.0000,1.0000,0.0000,1
C23,17477,17901,17724,11081,10.0000,1.0000,0.0000,1
C24,65535,65535,65535,11081,10.0000,1.0000,0.0000,1

M0,14494,15658,14958,11081,10.0000,1.0000,0.0000,2
M1,16303,17590,16734,11081,10.0000,1.0000,0.0000,2
M2,16461,17755,16899,11081,10.0000,1.0000,0.0000,2
M3,16617,17919,17063,11081,10.0000,1.0000,0.0000,2
M4,16772,18082,17226,11081,10.0000,1.0000,0.0000,2
M5,16927,18244,17389,11081,10.0000,1.0000,0.0000,2
M6,17044,18367,17512,11081,10.0000,1.0000,0.0000,2
M7,17217,18548,17693,11081,10.0000,1.0000,0.0000,2
M8,17328,18664,17809,11081,10.0000,1.0000,0.0000,2
M9,17414,18755,17899,11081,10.0000,1.0000,0.0000,2
M10,15626,16877,16034,11081,10.0000,1.0000,0.0000,1
M11,15699,16953,16108,11081,10.0000,1.0000,0.0000,1
M12,15764,17023,16175,11081,10.0000,1.0000,0.0000,1
M13,15836,17098,16249,11081,10.0000,1.0000,0.0000,1
M14,15907,17174,16322,11081,10.0000,1.0000,0.0000,1
M15,15972,17242,16389,11081,10.0000,1.0000,0.0000,1
M16,16036,17309,16456,11081,10.0000,1.0000,0.0000,1
M17,16100,17377,16522,11081,10.0000,1.0000,0.0000,1
M18,16177,17457,16602,11081,10.0000,1.0000,0.0000,1
M19,16240,17524,16668,11081,10.0000,1.0000,0.0000,1
M20,16366,17656,16800,11081,10.0000,1.0000,0.0000,1
M21,16442,17735,16879,11081,10.0000,1.0000,0.0000,1
M22,16504,17801,16945,11081,10.0000,1.0000,0.0000,1
M23,16698,18004,17148,11081,10.0000,1.0000,0.0000,1
M24,17611,18961,18104,11081,10.0000,1.0000,0.0000,1
M25,65535,65535,65535,11081,1.0000,1.0000,0.0000,2
K00000.DAT, 10797, 10.00, 1.20, -1, 10630, 16.8.2016 18:03:39, $GPRMC,180349.558,A,2224.8145,S,05232.0591,W,0.04,281.36,160816,,,A*69, 30.44, 28, 23, 0, 0, 0, 0
K00001.DAT, 14886, 10.00, 1.20, -1, 14868, 16.8.2016 18:03:39, $GPRMC,180353.800,A,2224.8153,S,05232.0558,W,0.02,131.09,160816,,,A*62, 30.44, 28, 23, 0, 0, 0, 0
K00002.DAT, 18990, 10.00, 1.20, -1, 18869, 16.8.2016 18:03:39, $GPRMC,180357.800,A,2224.8153,S,05232.0554,W,0.03,235.17,160816,,,A*63, 30.50, 29, 24, 0, 0, 0, 0
K00003.DAT, 23094, 10.00, 1.20, -1, 23068, 16.8.2016 18:03:39, $GPRMC,180402.000,A,2224.8150,S,05232.0543,W,0.03,332.30,160816,,,A*6A, 30.56, 29, 24, 0, 0, 0, 0
K00004.DAT, 27198, 10.00, 1.20, -1, 27069, 16.8.2016 18:03:39, $GPRMC,180406.000,A,2224.8146,S,05232.0533,W,0.04,238.46,160816,,,A*63, 30.56, 29, 24, 0, 0, 0, 0
K00005.DAT, 31304, 10.00, 1.20, -1, 31283, 16.8.2016 18:03:39, $GNRMC,180410.200,A,2224.8145,S,05232.0530,W,0.07,69.15,160816,,,A*4B, 30.56, 30, 24, 0, 0, 0, 0
K00006.DAT, 35408, 10.00, 1.20, -1, 35287, 16.8.2016 18:03:39, $GNRMC,180414.200,A,2224.8145,S,05232.0529,W,0.04,200.09,160816,,,A*74, 30.62, 30, 25, 0, 0, 0, 0
K00007.DAT, 39513, 10.00, 1.20, -1, 39491, 16.8.2016 18:03:39, $GNRMC,180418.400,A,2224.8144,S,05232.0530,W,0.02,89.97,160816,,,A*45, 30.62, 30, 25, 0, 0, 0, 0
K00008.DAT, 43617, 10.00, 1.20, -1, 43482, 16.8.2016 18:03:39, $GNRMC,180422.400,A,2224.8145,S,05232.0531,W,0.01,52.18,160816,,,A*4E, 30.69, 30, 25, 0, 0, 0, 0
K00009.DAT, 47722, 10.00, 1.20, -1, 47691, 16.8.2016 18:03:39, $GNRMC,180426.600,A,2224.8147,S,05232.0531,W,0.00,0.00,160816,,,A*75, 30.69, 30, 25, 0, 0, 0, 0
K00010.DAT, 51825, 10.00, 1.20, -1, 51682, 16.8.2016 18:03:39, $GNRMC,180430.600,A,2224.8149,S,05232.0530,W,0.01,122.73,160816,,,A*79, 30.69, 30, 25, 0, 0, 0, 0
K00011.DAT, 55940, 10.00, 1.20, -1, 55882, 16.8.2016 18:03:39, $GNRMC,180434.800,A,2224.8150,S,05232.0530,W,0.01,254.47,160816,,,A*7E, 30.75, 31, 25, 0, 0, 0, 0
K00012.DAT, 60034, 10.00, 1.20, -1, 59883, 16.8.2016 18:03:39, $GNRMC,180438.800,A,2224.8150,S,05232.0530,W,0.00,92.12,160816,,,A*4B, 30.75, 31, 25, 0, 0, 0, 0
K00013.DAT, 64139, 10.00, 1.20, -1, 64102, 16.8.2016 18:03:39, $GNRMC,180443.000,A,2224.8149,S,05232.0530,W,0.01,70.48,160816,,,A*45, 30.81, 31, 25, 0, 0, 0, 0
K00014.DAT, 68244, 10.00, 1.20, -1, 68103, 16.8.2016 18:03:39, $GNRMC,180447.000,A,2224.8150,S,05232.0529,W,0.00,180.20,160816,,,A*70, 30.81, 31, 25, 0, 0, 0, 0
K00015.DAT, 72347, 10.00, 1.20, -1, 72294, 16.8.2016 18:03:39, $GNRMC,180451.200,A,2224.8152,S,05232.0526,W,0.00,310.72,160816,,,A*74, 30.81, 31, 26, 0, 0, 0, 0
K00016.DAT, 76452, 10.00, 1.20, -1, 76297, 16.8.2016 18:03:39, $GNRMC,180455.200,A,2224.8152,S,05232.0524,W,0.00,202.00,160816,,,A*75, 30.81, 31, 26, 0, 0, 0, 0
K00017.DAT, 80556, 10.00, 1.20, -1, 80486, 16.8.2016 18:03:39, $GNRMC,180459.400,A,2224.8150,S,05232.0526,W,0.00,173.51,160816,,,A*7E, 30.87, 31, 26, 0, 0, 0, 0
K00018.DAT, 84661, 10.00, 1.20, -1, 84494, 16.8.2016 18:03:39, $GNRMC,180503.400,A,2224.8148,S,05232.0530,W,0.00,32.13,160816,,,A*4C, 30.87, 31, 26, 0, 0, 0, 0
K00019.DAT, 88766, 10.00, 1.20, -1, 88686, 16.8.2016 18:03:39, $GNRMC,180507.600,A,2224.8146,S,05232.0532,W,0.00,260.67,160816,,,A*70, 30.87, 32, 27, 0, 0, 0, 0
K00020.DAT, 92880, 10.00, 1.20, -1, 92894, 16.8.2016 18:03:39, $GNRMC,180511.800,A,2224.8145,S,05232.0534,W,0.01,229.40,160816,,,A*75, 30.94, 31, 26, 0, 0, 0, 0
K00021.DAT, 96974, 10.00, 1.20, -1, 96892, 16.8.2016 18:03:39, $GNRMC,180515.800,A,2224.8145,S,05232.0535,W,0.00,16.85,160816,,,A*46, 30.94, 32, 27, 0, 0, 0, 0
K00022.DAT, 101079, 10.00, 1.20, -1, 101102, 16.8.2016 18:03:39, $GNRMC,180520.000,A,2224.8146,S,05232.0537,W,0.01,289.54,160816,,,A*70, 30.94, 32, 27, 0, 0, 0, 0
K00023.DAT, 105182, 10.00, 1.20, -1, 105108, 16.8.2016 18:03:39, $GNRMC,180524.000,A,2224.8146,S,05232.0540,W,0.00,82.62,160816,,,A*49, 30.94, 31, 27, 0, 0, 0, 0
K00024.DAT, 109287, 10.00, 1.20, -1, 109294, 16.8.2016 18:03:39, $GNRMC,180528.200,A,2224.8147,S,05232.0543,W,0.00,4.93,160816,,,A*75, 31.00, 32, 27, 0, 0, 0, 0
K00025.DAT, 113391, 10.00, 1.20, -1, 113298, 16.8.2016 18:03:39, $GNRMC,180532.200,A,2224.8148,S,05232.0544,W,0.00,325.60,160816,,,A*7A, 31.00, 32, 27, 0, 0, 0, 0
K00026.DAT, 117496, 10.00, 1.20, -1, 117485, 16.8.2016 18:03:39, $GNRMC,180536.400,A,2224.8149,S,05232.0544,W,0.01,237.93,160816,,,A*76, 31.00, 33, 27, 0, 0, 0, 0
K00027.DAT, 121601, 10.00, 1.20, -1, 121487, 16.8.2016 18:03:39, $GNRMC,180540.400,A,2224.8150,S,05232.0544,W,0.01,6.29,160816,,,A*7E, 31.06, 33, 27, 0, 0, 0, 0
K00028.DAT, 125704, 10.00, 1.20, -1, 125687, 16.8.2016 18:03:39, $GNRMC,180544.600,A,2224.8149,S,05232.0543,W,0.01,306.50,160816,,,A*7A, 31.06, 32, 27, 0, 0, 0, 0
K00029.DAT, 129809, 10.00, 1.20, -1, 129692, 16.8.2016 18:03:39, $GNRMC,180548.600,A,2224.8149,S,05232.0543,W,0.00,147.43,160816,,,A*72, 31.06, 32, 28, 0, 0, 0, 0
K00030.DAT, 133913, 10.00, 1.20, -1, 133889, 16.8.2016 18:03:39, $GNRMC,180552.800,A,2224.8149,S,05232.0544,W,0.00,133.12,160816,,,A*77, 31.12, 33, 27, 0, 0, 0, 0
K00031.DAT, 138018, 10.00, 1.20, -1, 137887, 16.8.2016 18:03:39, $GNRMC,180556.800,A,2224.8149,S,05232.0546,W,0.02,255.77,160816,,,A*73, 31.12, 33, 27, 0, 0, 0, 0
K00032.DAT, 142123, 10.00, 1.20, -1, 142104, 16.8.2016 18:03:39, $GNRMC,180601.000,A,2224.8149,S,05232.0546,W,0.05,10.13,160816,,,A*4C, 31.12, 33, 28, 0, 0, 0, 0
K00033.DAT, 146227, 10.00, 1.20, -1, 146097, 16.8.2016 18:03:39, $GNRMC,180605.000,A,2224.8148,S,05232.0546,W,0.02,17.46,160816,,,A*49, 31.12, 33, 28, 0, 0, 0, 0
K00034.DAT, 150332, 10.00, 1.20, -1, 150291, 16.8.2016 18:03:39, $GNRMC,180609.200,A,2224.8147,S,05232.0544,W,0.09,249.68,160816,,,A*74, 31.19, 33, 28, 0, 0, 0, 0
K00035.DAT, 154435, 10.00, 1.20, -1, 154297, 16.8.2016 18:03:39, $GNRMC,180613.200,A,2224.8147,S,05232.0543,W,0.07,179.03,160816,,,A*7B, 31.19, 33, 28, 0, 0, 0, 0
K00036.DAT, 158539, 10.00, 1.20, -1, 158495, 16.8.2016 18:03:39, $GNRMC,180617.400,A,2224.8148,S,05232.0540,W,0.09,290.90,160816,,,A*75, 31.19, 33, 28, 0, 0, 0, 0
K00037.DAT, 162644, 10.00, 1.20, -1, 162495, 16.8.2016 18:03:39, $GNRMC,180621.400,A,2224.8147,S,05232.0536,W,0.15,70.94,160816,,,A*4B, 31.25, 33, 28, 0, 0, 0, 0
K00038.DAT, 166749, 10.00, 1.20, -1, 166699, 16.8.2016 18:03:39, $GNRMC,180625.600,A,2224.8145,S,05232.0534,W,0.04,27.19,160816,,,A*4A, 31.25, 33, 28, 0, 0, 0, 0
K00039.DAT, 170853, 10.00, 1.20, -1, 170695, 16.8.2016 18:03:39, $GNRMC,180629.600,A,2224.8143,S,05232.0532,W,0.05,11.58,160816,,,A*47, 31.25, 33, 28, 0, 0, 0, 0
K00040.DAT, 174958, 10.00, 1.20, -1, 174901, 16.8.2016 18:03:39, $GNRMC,180633.800,A,2224.8140,S,05232.0530,W,0.03,35.82,160816,,,A*44, 31.25, 33, 28, 0, 0, 0, 0
K00041.DAT, 179074, 10.00, 1.20, -1, 178889, 16.8.2016 18:03:39, $GNRMC,180637.800,A,2224.8140,S,05232.0531,W,0.03,228.11,160816,,,A*75, 31.31, 33, 28, 0, 0, 0, 0
K00042.DAT, 183167, 10.00, 1.20, -1, 183107, 16.8.2016 18:03:39, $GNRMC,180642.000,A,2224.8143,S,05232.0534,W,0.02,112.84,160816,,,A*7E, 31.31, 33, 28, 0, 0, 0, 0
K00043.DAT, 187271, 10.00, 1.20, -1, 187296, 16.8.2016 18:03:39, $GNRMC,180646.200,A,2224.8145,S,05232.0538,W,0.02,160.97,160816,,,A*75, 31.31, 34, 28, 0, 0, 0, 0
K00044.DAT, 191376, 10.00, 1.20, -1, 191299, 16.8.2016 18:03:39, $GNRMC,180650.200,A,2224.8146,S,05232.0539,W,0.06,114.40,160816,,,A*7D, 31.37, 33, 28, 0, 0, 0, 0
K00045.DAT, 195479, 10.00, 1.20, -1, 195501, 16.8.2016 18:03:39, $GNRMC,180654.400,A,2224.8144,S,05232.0538,W,0.05,256.02,160816,,,A*7C, 31.37, 33, 28, 0, 0, 0, 0
K00046.DAT, 199584, 10.00, 1.20, -1, 199503, 16.8.2016 18:03:39, $GNRMC,180658.400,A,2224.8144,S,05232.0537,W,0.08,138.44,160816,,,A*7B, 31.37, 33, 28, 0, 0, 0, 0
K00047.DAT, 203688, 10.00, 1.20, -1, 203701, 16.8.2016 18:03:39, $GNRMC,180702.600,A,2224.8147,S,05232.0538,W,0.02,28.32,160816,,,A*40, 31.37, 34, 28, 0, 0, 0, 0
K00048.DAT, 207793, 10.00, 1.20, -1, 207696, 16.8.2016 18:03:39, $GNRMC,180706.600,A,2224.8150,S,05232.0541,W,0.04,223.07,160816,,,A*75, 31.44, 33, 28, 0, 0, 0, 0
K00049.DAT, 211897, 10.00, 1.20, -1, 211897, 16.8.2016 18:03:39, $GNRMC,180710.800,A,2224.8150,S,05232.0541,W,0.01,24.07,160816,,,A*4C, 31.44, 34, 28, 0, 0, 0, 0
K00050.DAT, 216002, 10.00, 1.20, -1, 215898, 16.8.2016 18:03:39, $GNRMC,180714.800,A,2224.8148,S,05232.0540,W,0.01,79.97,160816,,,A*41, 31.44, 34, 29, 0, 0, 0, 0
K00051.DAT, 220118, 10.00, 1.20, -1, 220100, 16.8.2016 18:03:39, $GNRMC,180719.000,A,2224.8146,S,05232.0538,W,0.00,0.00,160816,,,A*74, 31.50, 34, 28, 0, 0, 0, 0
K00052.DAT, 224210, 10.00, 1.20, -1, 224101, 16.8.2016 18:03:39, $GNRMC,180723.000,A,2224.8145,S,05232.0537,W,0.01,305.67,160816,,,A*77, 31.50, 34, 29, 0, 0, 0, 0
K00053.DAT, 228315, 10.00, 1.20, -1, 228298, 16.8.2016 18:03:39, $GNRMC,180727.200,A,2224.8144,S,05232.0536,W,0.01,86.78,160816,,,A*47, 31.50, 34, 29, 0, 0, 0, 0
K00054.DAT, 232420, 10.00, 1.20, -1, 232299, 16.8.2016 18:03:39, $GNRMC,180731.200,A,2224.8142,S,05232.0533,W,0.01,227.00,160816,,,A*75, 31.56, 34, 28, 0, 0, 0, 0
K00055.DAT, 236524, 10.00, 1.20, -1, 236495, 16.8.2016 18:03:39, $GNRMC,180735.400,A,2224.8141,S,05232.0530,W,0.00,217.86,160816,,,A*7B, 31.56, 34, 28, 0, 0, 0, 0
K00056.DAT, 240627, 10.00, 1.20, -1, 240490, 16.8.2016 18:03:39, $GNRMC,180739.400,A,2224.8143,S,05232.0529,W,0.01,294.86,160816,,,A*77, 31.56, 34, 29, 0, 0, 0, 0
K00057.DAT, 244732, 10.00, 1.20, -1, 244694, 16.8.2016 18:03:39, $GNRMC,180743.600,A,2224.8145,S,05232.0528,W,0.00,249.14,160816,,,A*75, 31.56, 34, 29, 0, 0, 0, 0
K00058.DAT, 248836, 10.00, 1.20, -1, 248695, 16.8.2016 18:03:39, $GNRMC,180747.600,A,2224.8145,S,05232.0526,W,0.01,165.98,160816,,,A*77, 31.62, 34, 29, 0, 0, 0, 0
K00059.DAT, 252941, 10.00, 1.20, -1, 252889, 16.8.2016 18:03:39, $GNRMC,180751.800,A,2224.8145,S,05232.0525,W,0.00,46.07,160816,,,A*4A, 31.62, 34, 29, 0, 0, 0, 0
K00060.DAT, 257046, 10.00, 1.20, -1, 256892, 16.8.2016 18:03:39, $GNRMC,180755.800,A,2224.8146,S,05232.0527,W,0.00,329.42,160816,,,A*74, 31.62, 34, 29, 0, 0, 0, 0
K00061.DAT, 261150, 10.00, 1.20, -1, 261111, 16.8.2016 18:03:39, $GNRMC,180800.000,A,2224.8146,S,05232.0529,W,0.00,97.25,160816,,,A*4A, 31.62, 34, 29, 0, 0, 0, 0
K00062.DAT, 265255, 10.00, 1.20, -1, 265103, 16.8.2016 18:03:39, $GNRMC,180804.000,A,2224.8145,S,05232.0529,W,0.01,91.96,160816,,,A*42, 31.69, 34, 30, 0, 0, 0, 0
K00063.DAT, 269358, 10.00, 1.20, -1, 269292, 16.8.2016 18:03:39, $GNRMC,180808.200,A,2224.8145,S,05232.0531,W,0.00,36.06,160816,,,A*40, 31.69, 34, 29, 0, 0, 0, 0
K00064.DAT, 273464, 10.00, 1.20, -1, 273297, 16.8.2016 18:03:39, $GNRMC,180812.200,A,2224.8145,S,05232.0534,W,0.00,212.96,160816,,,A*73, 31.69, 34, 30, 0, 0, 0, 0
K00065.DAT, 277567, 10.00, 1.20, -1, 277499, 16.8.2016 18:03:39, $GNRMC,180816.400,A,2224.8144,S,05232.0535,W,0.01,44.82,160816,,,A*44, 31.75, 35, 30, 0, 0, 0, 0
K00066.DAT, 281672, 10.00, 1.20, -1, 281697, 16.8.2016 18:03:39, $GNRMC,180820.600,A,2224.8143,S,05232.0535,W,0.01,351.95,160816,,,A*75, 31.75, 35, 30, 0, 0, 0, 0
K00067.DAT, 285777, 10.00, 1.20, -1, 285696, 16.8.2016 18:03:39, $GNRMC,180824.600,A,2224.8144,S,05232.0536,W,0.00,304.48,160816,,,A*74, 31.75, 35, 30, 0, 0, 0, 0
K00068.DAT, 289881, 10.00, 1.20, -1, 289903, 16.8.2016 18:03:39, $GNRMC,180828.800,A,2224.8143,S,05232.0536,W,0.00,329.98,160816,,,A*73, 31.81, 35, 30, 0, 0, 0, 0
K00069.DAT, 293986, 10.00, 1.20, -1, 293901, 16.8.2016 18:03:39, $GNRMC,180832.800,A,2224.8140,S,05232.0537,W,0.00,302.33,160816,,,A*72, 31.81, 34, 30, 0, 0, 0, 0
K00070.DAT, 298089, 10.00, 1.20, -1, 298099, 16.8.2016 18:03:39, $GNRMC,180837.000,A,2224.8140,S,05232.0538,W,0.01,303.20,160816,,,A*72, 31.81, 35, 30, 0, 0, 0, 0
K00071.DAT, 302204, 10.00, 1.20, -1, 302105, 16.8.2016 18:03:39, $GNRMC,180841.000,A,2224.8141,S,05232.0540,W,0.00,84.54,160816,,,A*43, 31.81, 35, 30, 0, 0, 0, 0
K00072.DAT, 306309, 10.00, 1.20, -1, 306293, 16.8.2016 18:03:39, $GNRMC,180845.200,A,2224.8139,S,05232.0540,W,0.00,257.16,160816,,,A*70, 31.87, 35, 30, 0, 0, 0, 0
K00073.DAT, 310402, 10.00, 1.20, -1, 310293, 16.8.2016 18:03:39, $GNRMC,180849.200,A,2224.8140,S,05232.0541,W,0.01,116.35,160816,,,A*75, 31.87, 35, 30, 0, 0, 0, 0
K00074.DAT, 314506, 10.00, 1.20, -1, 314493, 16.8.2016 18:03:39, $GNRMC,180853.400,A,2224.8142,S,05232.0543,W,0.01,52.28,160816,,,A*45, 31.87, 36, 30, 0, 0, 0, 0
K00075.DAT, 318611, 10.00, 1.20, -1, 318493, 16.8.2016 18:03:39, $GNRMC,180857.400,A,2224.8142,S,05232.0542,W,0.00,322.06,160816,,,A*79, 31.94, 35, 30, 0, 0, 0, 0
K00076.DAT, 322715, 10.00, 1.20, -1, 322697, 16.8.2016 18:03:39, $GNRMC,180901.600,A,2224.8143,S,05232.0542,W,0.00,158.73,160816,,,A*75, 31.94, 35, 30, 0, 0, 0, 0
K00077.DAT, 326819, 10.00, 1.20, -1, 326697, 16.8.2016 18:03:39, $GNRMC,180905.600,A,2224.8143,S,05232.0541,W,0.00,28.13,160816,,,A*42, 31.94, 35, 30, 0, 0, 0, 0
K00078.DAT, 330924, 10.00, 1.20, -1, 330898, 16.8.2016 18:03:39, $GNRMC,180909.800,A,2224.8141,S,05232.0540,W,0.00,201.89,160816,,,A*79, 32.00, 35, 30, 0, 0, 0, 0
K00079.DAT, 335027, 10.00, 1.20, -1, 334896, 16.8.2016 18:03:39, $GNRMC,180913.800,A,2224.8141,S,05232.0540,W,0.01,247.14,160816,,,A*75, 32.00, 35, 30, 0, 0, 0, 0
K00080.DAT, 339133, 10.00, 1.20, -1, 339110, 16.8.2016 18:03:39, $GNRMC,180918.000,A,2224.8141,S,05232.0539,W,0.00,317.22,160816,,,A*78, 32.00, 35, 30, 0, 0, 0, 0
K00081.DAT, 343236, 10.00, 1.20, -1, 343100, 16.8.2016 18:03:39, $GNRMC,180922.000,A,2224.8139,S,05232.0536,W,0.00,190.96,160816,,,A*73, 32.00, 35, 30, 0, 0, 0, 0
K00082.DAT, 347353, 10.00, 1.20, -1, 347295, 16.8.2016 18:03:39, $GNRMC,180926.200,A,2224.8141,S,05232.0535,W,0.01,239.21,160816,,,A*74, 32.06, 35, 30, 0, 0, 0, 0
K00083.DAT, 351445, 10.00, 1.20, -1, 351298, 16.8.2016 18:03:39, $GNRMC,180930.200,A,2224.8142,S,05232.0535,W,0.01,338.12,160816,,,A*70, 32.06, 35, 30, 0, 0, 0, 0
K00084.DAT, 355550, 10.00, 1.20, -1, 355497, 16.8.2016 18:03:39, $GNRMC,180934.400,A,2224.8142,S,05232.0536,W,0.01,322.41,160816,,,A*7C, 32.06, 36, 30, 0, 0, 0, 0
K00085.DAT, 359655, 10.00, 1.20, -1, 359496, 16.8.2016 18:03:39, $GNRMC,180938.400,A,2224.8143,S,05232.0538,W,0.01,134.63,160816,,,A*7A, 32.12, 36, 30, 0, 0, 0, 0
K00086.DAT, 363759, 10.00, 1.20, -1, 363697, 16.8.2016 18:03:39, $GNRMC,180942.600,A,2224.8142,S,05232.0538,W,0.01,77.67,160816,,,A*46, 32.12, 36, 30, 0, 0, 0, 0
K00087.DAT, 367863, 10.00, 1.20, -1, 367697, 16.8.2016 18:03:39, $GNRMC,180946.600,A,2224.8142,S,05232.0538,W,0.01,119.87,160816,,,A*75, 32.12, 36, 30, 0, 0, 0, 0
K00088.DAT, 371967, 10.00, 1.20, -1, 371897, 16.8.2016 18:03:39, $GNRMC,180950.800,A,2224.8144,S,05232.0539,W,0.01,309.28,160816,,,A*7D, 32.12, 36, 30, 0, 0, 0, 0
K00089.DAT, 376071, 10.00, 1.20, -1, 375897, 16.8.2016 18:03:39, $GNRMC,180954.800,A,2224.8145,S,05232.0539,W,0.01,254.81,160816,,,A*72, 32.19, 36, 30, 0, 0, 0, 0
K00090.DAT, 380176, 10.00, 1.20, -1, 380105, 16.8.2016 18:03:39, $GNRMC,180959.000,A,2224.8147,S,05232.0539,W,0.00,326.42,160816,,,A*7F, 32.19, 36, 30, 0, 0, 0, 0
K00091.DAT, 384281, 10.00, 1.20, -1, 384298, 16.8.2016 18:03:39, $GNRMC,181003.200,A,2224.8146,S,05232.0538,W,0.00,314.79,160816,,,A*73, 32.19, 36, 30, 0, 0, 0, 0
K00092.DAT, 388395, 10.00, 1.20, -1, 388299, 16.8.2016 18:03:39, $GNRMC,181007.200,A,2224.8146,S,05232.0537,W,0.01,61.24,160816,,,A*40, 32.25, 36, 30, 0, 0, 0, 0
K00093.DAT, 392489, 10.00, 1.20, -1, 392498, 16.8.2016 18:03:39, $GNRMC,181011.400,A,2224.8146,S,05232.0538,W,0.01,283.86,160816,,,A*78, 32.25, 36, 30, 0, 0, 0, 0
K00094.DAT, 396593, 10.00, 1.20, -1, 396497, 16.8.2016 18:03:39, $GNRMC,181015.400,A,2224.8145,S,05232.0538,W,0.00,220.93,160816,,,A*73, 32.25, 36, 30, 0, 0, 0, 0
K00095.DAT, 400699, 10.00, 1.20, -1, 400697, 16.8.2016 18:03:39, $GNRMC,181019.600,A,2224.8146,S,05232.0539,W,0.01,35.72,160816,,,A*47, 32.31, 36, 30, 0, 0, 0, 0
K00096.DAT, 404802, 10.00, 1.20, -1, 404696, 16.8.2016 18:03:39, $GNRMC,181023.600,A,2224.8145,S,05232.0539,W,0.00,318.00,160816,,,A*75, 32.31, 36, 31, 0, 0, 0, 0
K00097.DAT, 408907, 10.00, 1.20, -1, 408898, 16.8.2016 18:03:39, $GNRMC,181027.800,A,2224.8144,S,05232.0538,W,0.01,121.74,160816,,,A*75, 32.31, 36, 30, 0, 0, 0, 0
K00098.DAT, 413012, 10.00, 1.20, -1, 412896, 16.8.2016 18:03:39, $GNRMC,181031.800,A,2224.8144,S,05232.0538,W,0.02,214.73,160816,,,A*73, 32.37, 36, 31, 0, 0, 0, 0
K00099.DAT, 417115, 10.00, 1.20, -1, 417102, 16.8.2016 18:03:39, $GNRMC,181036.000,A,2224.8144,S,05232.0536,W,0.00,0.00,160816,,,A*73, 32.37, 36, 31, 0, 0, 0, 0
K00100.DAT, 421220, 10.00, 1.20, -1, 421103, 16.8.2016 18:03:39, $GNRMC,181040.000,A,2224.8145,S,05232.0536,W,0.01,152.92,160816,,,A*7F, 32.37, 36, 31, 0, 0, 0, 0
K00101.DAT, 425324, 10.00, 1.20, -1, 425298, 16.8.2016 18:03:39, $GNRMC,181044.200,A,2224.8145,S,05232.0534,W,0.00,70.72,160816,,,A*45, 32.37, 36, 30, 0, 0, 0, 0
K00102.DAT, 429438, 10.00, 1.20, -1, 429298, 16.8.2016 18:03:39, $GNRMC,181048.200,A,2224.8146,S,05232.0533,W,0.00,163.77,160816,,,A*7B, 32.44, 36, 30, 0, 0, 0, 0
K00103.DAT, 433530, 10.00, 1.20, -1, 433498, 16.8.2016 18:03:39, $GNRMC,181052.400,A,2224.8144,S,05232.0533,W,0.00,185.18,160816,,,A*75, 32.44, 36, 31, 0, 0, 0, 0
K00104.DAT, 437635, 10.00, 1.20, -1, 437498, 16.8.2016 18:03:39, $GNRMC,181056.400,A,2224.8142,S,05232.0533,W,0.01,268.30,160816,,,A*7C, 32.44, 36, 31, 0, 0, 0, 0
K00105.DAT, 441739, 10.00, 1.20, -1, 441699, 16.8.2016 18:03:39, $GNRMC,181100.600,A,2224.8141,S,05232.0534,W,0.01,298.95,160816,,,A*78, 32.44, 36, 31, 0, 0, 0, 0
K00106.DAT, 445843, 10.00, 1.20, -1, 445699, 16.8.2016 18:03:39, $GNRMC,181104.600,A,2224.8139,S,05232.0533,W,0.01,83.33,160816,,,A*40, 32.50, 36, 31, 0, 0, 0, 0
K00107.DAT, 449949, 10.00, 1.20, -1, 449898, 16.8.2016 18:03:39, $GNRMC,181108.800,A,2224.8139,S,05232.0532,W,0.00,255.01,160816,,,A*7A, 32.50, 36, 31, 0, 0, 0, 0
K00108.DAT, 454053, 10.00, 1.20, -1, 453897, 16.8.2016 18:03:39, $GNRMC,181112.800,A,2224.8138,S,05232.0531,W,0.01,180.49,160816,,,A*75, 32.50, 36, 31, 0, 0, 0, 0
K00109.DAT, 458158, 10.00, 1.20, -1, 458103, 16.8.2016 18:03:39, $GNRMC,181117.000,A,2224.8139,S,05232.0530,W,0.01,279.05,160816,,,A*75, 32.56, 36, 31, 0, 0, 0, 0
K00110.DAT, 462262, 10.00, 1.20, -1, 462104, 16.8.2016 18:03:39, $GNRMC,181121.000,A,2224.8140,S,05232.0538,W,1.26,277.94,160816,,,A*74, 32.56, 37, 31, 0, 0, 0, 0
K00111.DAT, 466366, 10.00, 1.20, -1, 466299, 16.8.2016 18:03:39, $GNRMC,181125.200,A,2224.8140,S,05232.0549,W,0.85,252.94,160816,,,A*7B, 32.56, 36, 31, 0, 0, 0, 0
K00112.DAT, 470471, 10.00, 1.20, -1, 470498, 16.8.2016 18:03:39, $GNRMC,181129.400,A,2224.8147,S,05232.0559,W,0.25,323.39,160816,,,A*7D, 32.56, 36, 31, 0, 0, 0, 0
K00113.DAT, 474586, 10.00, 1.20, -1, 474499, 16.8.2016 18:03:39, $GNRMC,181133.400,A,2224.8143,S,05232.0554,W,0.33,189.16,160816,,,A*77, 32.62, 36, 31, 0, 0, 0, 0
K00114.DAT, 478678, 10.00, 1.20, -1, 478701, 16.8.2016 18:03:39, $GNRMC,181137.600,A,2224.8148,S,05232.0573,W,3.66,261.06,160816,,,A*78, 32.62, 37, 31, 0, 0, 0, 0
K00115.DAT, 482784, 10.00, 1.20, -1, 482702, 16.8.2016 18:03:39, $GNRMC,181141.600,A,2224.8133,S,05232.0578,W,3.84,277.69,160816,,,A*7C, 32.62, 36, 31, 0, 0, 0, 0
K00116.DAT, 486887, 10.00, 1.20, -1, 486902, 16.8.2016 18:03:39, $GNRMC,181145.800,A,2224.8113,S,05232.0584,W,4.01,272.17,160816,,,A*71, 32.69, 37, 31, 0, 0, 0, 0
K00117.DAT, 490993, 10.00, 1.20, -1, 490903, 16.8.2016 18:03:39, $GNRMC,181149.800,A,2224.8119,S,05232.0595,W,3.98,270.47,160816,,,A*77, 32.69, 37, 31, 0, 0, 0, 0
K00118.DAT, 495097, 10.00, 1.20, -1, 495111, 16.8.2016 18:03:39, $GNRMC,181154.000,A,2224.8121,S,05232.0600,W,3.87,271.43,160816,,,A*7C, 32.69, 37, 31, 0, 0, 0, 0
K00119.DAT, 499202, 10.00, 1.20, -1, 499108, 16.8.2016 18:03:39, $GNRMC,181158.000,A,2224.8106,S,05232.0586,W,3.57,270.76,160816,,,A*72, 32.69, 37, 31, 0, 0, 0, 0
K00120.DAT, 503305, 10.00, 1.20, -1, 503301, 16.8.2016 18:03:39, $GNRMC,181202.200,A,2224.8095,S,05232.0577,W,0.54,311.77,160816,,,A*7E, 32.75, 36, 31, 0, 0, 0, 0
K00121.DAT, 507409, 10.00, 1.20, -1, 507299, 16.8.2016 18:03:39, $GNRMC,181206.200,A,2224.8140,S,05232.0578,W,5.66,196.33,160816,,,A*75, 32.75, 37, 31, 0, 0, 0, 0
K00122.DAT, 511514, 10.00, 1.20, -1, 511499, 16.8.2016 18:03:39, $GNRMC,181210.400,A,2224.8219,S,05232.0601,W,7.19,199.19,160816,,,A*7B, 32.75, 37, 31, 0, 0, 0, 0
K00123.DAT, 515618, 10.00, 1.20, -1, 515499, 16.8.2016 18:03:39, $GNRMC,181214.400,A,2224.8317,S,05232.0631,W,7.73,199.78,160816,,,A*78, 32.75, 37, 31, 0, 0, 0, 0
K00124.DAT, 519735, 10.00, 1.20, -1, 519700, 16.8.2016 18:03:39, $GNRMC,181218.600,A,2224.8413,S,05232.0654,W,8.05,197.57,160816,,,A*7B, 32.81, 37, 31, 0, 0, 0, 0
K00125.DAT, 523828, 10.00, 1.20, -1, 523699, 16.8.2016 18:03:39, $GNRMC,181222.600,A,2224.8468,S,05232.0655,W,1.10,44.82,160816,,,A*45, 32.81, 36, 31, 0, 0, 0, 0
K00126.DAT, 527932, 10.00, 1.20, -1, 527899, 16.8.2016 18:03:39, $GNRMC,181226.800,A,2224.8431,S,05232.0652,W,4.73,15.15,160816,,,A*4E, 32.81, 37, 31, 0, 0, 0, 0
K00127.DAT, 532036, 10.00, 1.20, -1, 531898, 16.8.2016 18:03:39, $GNRMC,181230.800,A,2224.8370,S,05232.0619,W,6.41,19.55,160816,,,A*4F, 32.81, 37, 31, 0, 0, 0, 0
K00128.DAT, 536140, 10.00, 1.20, -1, 536106, 16.8.2016 18:03:39, $GNRMC,181235.000,A,2224.8289,S,05232.0584,W,7.40,17.56,160816,,,A*4F, 32.87, 37, 31, 0, 0, 0, 0
K00129.DAT, 540245, 10.00, 1.20, -1, 540105, 16.8.2016 18:03:39, $GNRMC,181239.000,A,2224.8216,S,05232.0553,W,7.72,15.51,160816,,,A*4B, 32.87, 37, 31, 0, 0, 0, 0
K00130.DAT, 544350, 10.00, 1.20, -1, 544299, 16.8.2016 18:03:39, $GNRMC,181243.200,A,2224.8127,S,05232.0523,W,8.19,13.93,160816,,,A*48, 32.87, 37, 31, 0, 0, 0, 0
K00131.DAT, 548454, 10.00, 1.20, -1, 548300, 16.8.2016 18:03:39, $GNRMC,181247.200,A,2224.8046,S,05232.0487,W,8.28,22.67,160816,,,A*4E, 32.87, 37, 31, 0, 0, 0, 0
K00132.DAT, 552558, 10.00, 1.20, -1, 552499, 16.8.2016 18:03:39, $GNRMC,181251.400,A,2224.7955,S,05232.0451,W,7.89,18.27,160816,,,A*49, 32.87, 37, 31, 0, 0, 0, 0
K00133.DAT, 556660, 10.00, 1.20, -1, 556502, 16.8.2016 18:03:39, $GNRMC,181255.400,A,2224.7873,S,05232.0416,W,7.54,18.88,160816,,,A*4E, 32.87, 37, 31, 0, 0, 0, 0
K00134.DAT, 560765, 10.00, 1.20, -1, 560700, 16.8.2016 18:03:39, $GNRMC,181259.600,A,2224.7785,S,05232.0382,W,7.90,17.86,160816,,,A*45, 32.94, 37, 31, 0, 0, 0, 0
K00135.DAT, 564869, 10.00, 1.20, -1, 564700, 16.8.2016 18:03:39, $GNRMC,181303.600,A,2224.7705,S,05232.0347,W,7.75,17.44,160816,,,A*4F, 32.94, 37, 31, 0, 0, 0, 0
K00136.DAT, 568973, 10.00, 1.20, -1, 568902, 16.8.2016 18:03:39, $GNRMC,181307.800,A,2224.7616,S,05232.0314,W,7.94,18.36,160816,,,A*45, 32.94, 37, 31, 0, 0, 0, 0
K00137.DAT, 573078, 10.00, 1.20, -1, 572903, 16.8.2016 18:03:39, $GNRMC,181311.800,A,2224.7527,S,05232.0281,W,7.96,18.78,160816,,,A*46, 32.94, 37, 31, 0, 0, 0, 0
K00138.DAT, 577180, 10.00, 1.20, -1, 577108, 16.8.2016 18:03:39, $GNRMC,181316.000,A,2224.7442,S,05232.0247,W,7.78,18.36,160816,,,A*4B, 32.94, 37, 32, 0, 0, 0, 0
K00139.DAT, 581285, 10.00, 1.20, -1, 581302, 16.8.2016 18:03:39, $GNRMC,181320.200,A,2224.7351,S,05232.0220,W,7.66,20.03,160816,,,A*4A, 32.94, 37, 32, 0, 0, 0, 0
K00140.DAT, 585390, 10.00, 1.20, -1, 585303, 16.8.2016 18:03:39, $GNRMC,181324.200,A,2224.7270,S,05232.0192,W,8.06,15.11,160816,,,A*4A, 32.94, 37, 31, 0, 0, 0, 0
K00141.DAT, 589493, 10.00, 1.20, -1, 589502, 16.8.2016 18:03:39, $GNRMC,181328.400,A,2224.7182,S,05232.0159,W,7.73,17.33,160816,,,A*46, 32.94, 37, 32, 0, 0, 0, 0
K00142.DAT, 593609, 10.00, 1.20, -1, 593503, 16.8.2016 18:03:39, $GNRMC,181332.400,A,2224.7098,S,05232.0132,W,7.96,8.74,160816,,,A*7C, 33.00, 37, 31, 0, 0, 0, 0
K00143.DAT, 597713, 10.00, 1.20, -1, 597704, 16.8.2016 18:03:39, $GNRMC,181336.600,A,2224.7021,S,05232.0167,W,7.39,320.02,160816,,,A*75, 33.00, 37, 32, 0, 0, 0, 0
K00144.DAT, 601807, 10.00, 1.20, -1, 601703, 16.8.2016 18:03:39, $GNRMC,181340.600,A,2224.7006,S,05232.0256,W,7.28,260.48,160816,,,A*7B, 33.00, 37, 32, 0, 0, 0, 0
K00145.DAT, 605911, 10.00, 1.20, -1, 605904, 16.8.2016 18:03:39, $GNRMC,181344.800,A,2224.7047,S,05232.0317,W,6.40,218.16,160816,,,A*7B, 33.00, 37, 32, 0, 0, 0, 0
K00146.DAT, 610015, 10.00, 1.20, -1, 609899, 16.8.2016 18:03:39, $GNRMC,181348.800,A,2224.7117,S,05232.0361,W,6.93,204.76,160816,,,A*77, 33.00, 37, 32, 0, 0, 0, 0
K00147.DAT, 614119, 10.00, 1.20, -1, 614107, 16.8.2016 18:03:39, $GNRMC,181353.000,A,2224.7199,S,05232.0399,W,7.41,201.66,160816,,,A*7E, 33.00, 37, 32, 0, 0, 0, 0
K00148.DAT, 618225, 10.00, 1.20, -1, 618101, 16.8.2016 18:03:39, $GNRMC,181357.000,A,2224.7273,S,05232.0432,W,7.68,199.91,160816,,,A*7A, 33.00, 37, 31, 0, 0, 0, 0
K00149.DAT, 622328, 10.00, 1.20, -1, 622305, 16.8.2016 18:03:39, $GNRMC,181401.200,A,2224.7359,S,05232.0471,W,7.90,201.64,160816,,,A*7D, 33.06, 37, 31, 0, 0, 0, 0
K00150.DAT, 626433, 10.00, 1.20, -1, 626302, 16.8.2016 18:03:39, $GNRMC,181405.200,A,2224.7439,S,05232.0496,W,7.69,177.82,160816,,,A*7D, 33.06, 37, 31, 0, 0, 0, 0
K00151.DAT, 630538, 10.00, 1.20, -1, 630502, 16.8.2016 18:03:39, $GNRMC,181409.400,A,2224.7508,S,05232.0450,W,6.62,123.64,160816,,,A*7D, 33.06, 37, 31, 0, 0, 0, 0
K00152.DAT, 634642, 10.00, 1.20, -1, 634500, 16.8.2016 18:03:39, $GNRMC,181413.400,A,2224.7540,S,05232.0376,W,6.36,107.86,160816,,,A*72, 33.06, 37, 31, 0, 0, 0, 0
K00153.DAT, 638746, 10.00, 1.20, -1, 638706, 16.8.2016 18:03:39, $GNRMC,181417.600,A,2224.7557,S,05232.0292,W,7.47,100.46,160816,,,A*75, 33.06, 37, 31, 0, 0, 0, 0
K00154.DAT, 642850, 10.00, 1.20, -1, 642705, 16.8.2016 18:03:39, $GNRMC,181421.600,A,2224.7575,S,05232.0199,W,7.87,99.85,160816,,,A*4A, 33.06, 37, 31, 0, 0, 0, 0
K00155.DAT, 646954, 10.00, 1.20, -1, 646904, 16.8.2016 18:03:39, $GNRMC,181425.800,A,2224.7599,S,05232.0098,W,7.91,99.96,160816,,,A*47, 33.06, 37, 31, 0, 0, 0, 0
K00156.DAT, 651059, 10.00, 1.20, -1, 650904, 16.8.2016 18:03:39, $GNRMC,181429.800,A,2224.7610,S,05232.0010,W,7.95,101.15,160816,,,A*76, 33.06, 37, 31, 0, 0, 0, 0
K00157.DAT, 655163, 10.00, 1.20, -1, 655106, 16.8.2016 18:03:39, $GNRMC,181434.000,A,2224.7622,S,05231.9909,W,8.07,102.00,160816,,,A*7B, 33.12, 37, 32, 0, 0, 0, 0
K00158.DAT, 659269, 10.00, 1.20, -1, 659101, 16.8.2016 18:03:39, $GNRMC,181438.000,A,2224.7646,S,05231.9817,W,7.88,103.78,160816,,,A*7D, 33.12, 37, 31, 0, 0, 0, 0
K00159.DAT, 663372, 10.00, 1.20, -1, 663299, 16.8.2016 18:03:39, $GNRMC,181442.200,A,2224.7669,S,05231.9719,W,8.05,102.59,160816,,,A*76, 33.12, 37, 32, 0, 0, 0, 0
K00160.DAT, 667476, 10.00, 1.20, -1, 667495, 16.8.2016 18:03:39, $GNRMC,181446.400,A,2224.7688,S,05231.9618,W,8.24,102.48,160816,,,A*78, 33.12, 37, 31, 0, 0, 0, 0
K00161.DAT, 671582, 10.00, 1.20, -1, 671495, 16.8.2016 18:03:39, $GNRMC,181450.400,A,2224.7706,S,05231.9527,W,8.05,102.08,160816,,,A*70, 33.12, 37, 31, 0, 0, 0, 0
K00162.DAT, 675686, 10.00, 1.20, -1, 675697, 16.8.2016 18:03:39, $GNRMC,181454.600,A,2224.7729,S,05231.9433,W,7.87,102.18,160816,,,A*7B, 33.12, 37, 32, 0, 0, 0, 0
K00163.DAT, 679790, 10.00, 1.20, -1, 679705, 16.8.2016 18:03:39, $GNRMC,181458.600,A,2224.7749,S,05231.9334,W,7.76,102.13,160816,,,A*74, 33.12, 37, 31, 0, 0, 0, 0
K00164.DAT, 683894, 10.00, 1.20, -1, 683897, 16.8.2016 18:03:39, $GNRMC,181502.800,A,2224.7769,S,05231.9231,W,7.88,101.71,160816,,,A*74, 33.12, 37, 32, 0, 0, 0, 0
K00165.DAT, 687999, 10.00, 1.20, -1, 687896, 16.8.2016 18:03:39, $GNRMC,181506.800,A,2224.7786,S,05231.9143,W,7.98,99.68,160816,,,A*4E, 33.12, 37, 31, 0, 0, 0, 0
K00166.DAT, 692104, 10.00, 1.20, -1, 692099, 16.8.2016 18:03:39, $GNRMC,181511.000,A,2224.7804,S,05231.9047,W,7.96,103.03,160816,,,A*71, 33.12, 37, 31, 0, 0, 0, 0
K00167.DAT, 696219, 10.00, 1.20, -1, 696101, 16.8.2016 18:03:39, $GNRMC,181515.000,A,2224.7827,S,05231.8960,W,7.85,102.72,160816,,,A*7C, 33.19, 37, 32, 0, 0, 0, 0
K00168.DAT, 700313, 10.00, 1.20, -1, 700303, 16.8.2016 18:03:39, $GNRMC,181519.200,A,2224.7843,S,05231.8866,W,7.82,101.29,160816,,,A*7D, 33.19, 37, 32, 0, 0, 0, 0
K00169.DAT, 704417, 10.00, 1.20, -1, 704297, 16.8.2016 18:03:39, $GNRMC,181523.200,A,2224.7861,S,05231.8772,W,7.81,102.00,160816,,,A*75, 33.19, 37, 32, 0, 0, 0, 0
K00170.DAT, 708521, 10.00, 1.20, -1, 708498, 16.8.2016 18:03:39, $GNRMC,181527.400,A,2224.7881,S,05231.8675,W,7.86,101.78,160816,,,A*74, 33.19, 37, 31, 0, 0, 0, 0
K00171.DAT, 712626, 10.00, 1.20, -1, 712505, 16.8.2016 18:03:39, $GNRMC,181531.400,A,2224.7898,S,05231.8584,W,7.90,101.29,160816,,,A*75, 33.19, 37, 32, 0, 0, 0, 0
K00172.DAT, 716730, 10.00, 1.20, -1, 716699, 16.8.2016 18:03:39, $GNRMC,181535.600,A,2224.7915,S,05231.8487,W,7.85,102.56,160816,,,A*7A, 33.19, 37, 31, 0, 0, 0, 0
K00173.DAT, 720835, 10.00, 1.20, -1, 720699, 16.8.2016 18:03:39, $GNRMC,181539.600,A,2224.7939,S,05231.8397,W,7.82,102.94,160816,,,A*77, 33.19, 37, 32, 0, 0, 0, 0
K00174.DAT, 724938, 10.00, 1.20, -1, 724898, 16.8.2016 18:03:39, $GNRMC,181543.800,A,2224.7961,S,05231.8301,W,7.88,102.56,160816,,,A*72, 33.19, 37, 32, 0, 0, 0, 0
K00175.DAT, 729044, 10.00, 1.20, -1, 728899, 16.8.2016 18:03:39, $GNRMC,181547.800,A,2224.7981,S,05231.8208,W,7.77,102.43,160816,,,A*74, 33.19, 37, 32, 0, 0, 0, 0
K00176.DAT, 733148, 10.00, 1.20, -1, 733102, 16.8.2016 18:03:39, $GNRMC,181552.000,A,2224.8001,S,05231.8114,W,7.74,100.86,160816,,,A*70, 33.19, 37, 31, 0, 0, 0, 0
K00177.DAT, 737251, 10.00, 1.20, -1, 737101, 16.8.2016 18:03:39, $GNRMC,181556.000,A,2224.8017,S,05231.8023,W,7.94,103.64,160816,,,A*77, 33.19, 37, 31, 0, 0, 0, 0
K00178.DAT, 741357, 10.00, 1.20, -1, 741299, 16.8.2016 18:03:39, $GNRMC,181600.200,A,2224.8039,S,05231.7927,W,7.70,102.60,160816,,,A*74, 33.19, 37, 32, 0, 0, 0, 0
K00179.DAT, 745461, 10.00, 1.20, -1, 745299, 16.8.2016 18:03:39, $GNRMC,181604.200,A,2224.8059,S,05231.7836,W,7.41,104.28,160816,,,A*7F, 33.19, 37, 32, 0, 0, 0, 0
K00180.DAT, 749566, 10.00, 1.20, -1, 749499, 16.8.2016 18:03:39, $GNRMC,181608.400,A,2224.8080,S,05231.7740,W,7.61,103.43,160816,,,A*77, 33.19, 37, 32, 0, 0, 0, 0
K00181.DAT, 753670, 10.00, 1.20, -1, 753502, 16.8.2016 18:03:39, $GNRMC,181612.400,A,2224.8102,S,05231.7652,W,8.02,100.06,160816,,,A*7D, 33.19, 37, 32, 0, 0, 0, 0
K00182.DAT, 757774, 10.00, 1.20, -1, 757699, 16.8.2016 18:03:39, $GNRMC,181616.600,A,2224.8116,S,05231.7561,W,7.62,103.52,160816,,,A*76, 33.25, 37, 32, 0, 0, 0, 0
K00183.DAT, 761878, 10.00, 1.20, -1, 761900, 16.8.2016 18:03:39, $GNRMC,181620.800,A,2224.8138,S,05231.7468,W,7.75,101.71,160816,,,A*7C, 33.25, 37, 32, 0, 0, 0, 0
K00184.DAT, 765982, 10.00, 1.20, -1, 765900, 16.8.2016 18:03:39, $GNRMC,181624.800,A,2224.8156,S,05231.7377,W,7.70,102.46,160816,,,A*7B, 33.25, 37, 32, 0, 0, 0, 0
K00185.DAT, 770087, 10.00, 1.20, -1, 770107, 16.8.2016 18:03:39, $GNRMC,181629.000,A,2224.8173,S,05231.7281,W,7.77,101.94,160816,,,A*7A, 33.25, 37, 31, 0, 0, 0, 0
K00186.DAT, 774192, 10.00, 1.20, -1, 774107, 16.8.2016 18:03:39, $GNRMC,181633.000,A,2224.8192,S,05231.7190,W,7.60,101.41,160816,,,A*73, 33.25, 37, 32, 0, 0, 0, 0
K00187.DAT, 778296, 10.00, 1.20, -1, 778301, 16.8.2016 18:03:39, $GNRMC,181637.200,A,2224.8212,S,05231.7094,W,7.94,103.40,160816,,,A*73, 33.25, 37, 32, 0, 0, 0, 0
K00188.DAT, 782400, 10.00, 1.20, -1, 782301, 16.8.2016 18:03:39, $GNRMC,181641.200,A,2224.8230,S,05231.7000,W,7.83,101.29,160816,,,A*74, 33.25, 37, 31, 0, 0, 0, 0
K00189.DAT, 786504, 10.00, 1.20, -1, 786504, 16.8.2016 18:03:39, $GNRMC,181645.400,A,2224.8250,S,05231.6905,W,7.83,102.45,160816,,,A*74, 33.25, 37, 32, 0, 0, 0, 0
K00190.DAT, 790607, 10.00, 1.20, -1, 790498, 16.8.2016 18:03:39, $GNRMC,181649.400,A,2224.8268,S,05231.6815,W,7.22,101.28,160816,,,A*70, 33.25, 37, 32, 0, 0, 0, 0
K00191.DAT, 794711, 10.00, 1.20, -1, 794697, 16.8.2016 18:03:39, $GNRMC,181653.600,A,2224.8286,S,05231.6722,W,7.94,103.49,160816,,,A*7A, 33.25, 37, 32, 0, 0, 0, 0
K00192.DAT, 798815, 10.00, 1.20, -1, 798699, 16.8.2016 18:03:39, $GNRMC,181657.600,A,2224.8306,S,05231.6630,W,7.64,101.94,160816,,,A*78, 33.25, 38, 32, 0, 0, 0, 0
K00193.DAT, 802920, 10.00, 1.20, -1, 802900, 16.8.2016 18:03:39, $GNRMC,181701.800,A,2224.8327,S,05231.6537,W,7.85,103.78,160816,,,A*7C, 33.25, 37, 31, 0, 0, 0, 0
K00194.DAT, 807024, 10.00, 1.20, -1, 806898, 16.8.2016 18:03:39, $GNRMC,181705.800,A,2224.8348,S,05231.6446,W,8.14,104.39,160816,,,A*73, 33.25, 37, 31, 0, 0, 0, 0
K00195.DAT, 811127, 10.00, 1.20, -1, 811104, 16.8.2016 18:03:39, $GNRMC,181710.000,A,2224.8365,S,05231.6344,W,7.90,100.34,160816,,,A*7F, 33.25, 38, 32, 0, 0, 0, 0
K00196.DAT, 815232, 10.00, 1.20, -1, 815102, 16.8.2016 18:03:39, $GNRMC,181714.000,A,2224.8381,S,05231.6249,W,8.08,103.39,160816,,,A*7D, 33.25, 37, 32, 0, 0, 0, 0
K00197.DAT, 819335, 10.00, 1.20, -1, 819298, 16.8.2016 18:03:39, $GNRMC,181718.200,A,2224.8404,S,05231.6153,W,7.94,103.19,160816,,,A*79, 33.31, 37, 32, 0, 0, 0, 0
K00198.DAT, 823441, 10.00, 1.20, -1, 823299, 16.8.2016 18:03:39, $GNRMC,181722.200,A,2224.8422,S,05231.6060,W,7.90,102.52,160816,,,A*7F, 33.31, 37, 31, 0, 0, 0, 0
K00199.DAT, 827544, 10.00, 1.20, -1, 827499, 16.8.2016 18:03:39, $GNRMC,181726.400,A,2224.8437,S,05231.5960,W,7.65,101.95,160816,,,A*71, 33.31, 37, 32, 0, 0, 0, 0
K00200.DAT, 831648, 10.00, 1.20, -1, 831499, 16.8.2016 18:03:39, $GNRMC,181730.400,A,2224.8458,S,05231.5869,W,7.81,102.18,160816,,,A*7B, 33.31, 37, 31, 0, 0, 0, 0
K00201.DAT, 835754, 10.00, 1.20, -1, 835700, 16.8.2016 18:03:39, $GNRMC,181734.600,A,2224.8478,S,05231.5771,W,7.91,102.39,160816,,,A*7B, 33.31, 37, 32, 0, 0, 0, 0
K00202.DAT, 839857, 10.00, 1.20, -1, 839700, 16.8.2016 18:03:39, $GNRMC,181738.600,A,2224.8496,S,05231.5679,W,7.83,101.92,160816,,,A*7F, 33.31, 37, 32, 0, 0, 0, 0
K00203.DAT, 843962, 10.00, 1.20, -1, 843900, 16.8.2016 18:03:39, $GNRMC,181742.800,A,2224.8518,S,05231.5584,W,7.87,102.35,160816,,,A*70, 33.31, 37, 31, 0, 0, 0, 0
K00204.DAT, 848066, 10.00, 1.20, -1, 847900, 16.8.2016 18:03:39, $GNRMC,181746.800,A,2224.8534,S,05231.5490,W,7.62,102.07,160816,,,A*74, 33.31, 37, 32, 0, 0, 0, 0
K00205.DAT, 852171, 10.00, 1.20, -1, 852105, 16.8.2016 18:03:39, $GNRMC,181751.000,A,2224.8557,S,05231.5395,W,7.75,102.76,160816,,,A*7D, 33.31, 37, 32, 0, 0, 0, 0
K00206.DAT, 856275, 10.00, 1.20, -1, 856111, 16.8.2016 18:03:39, $GNRMC,181755.000,A,2224.8575,S,05231.5306,W,7.52,102.38,160816,,,A*7C, 33.31, 37, 31, 0, 0, 0, 0
K00207.DAT, 860379, 10.00, 1.20, -1, 860305, 16.8.2016 18:03:39, $GNRMC,181759.200,A,2224.8590,S,05231.5211,W,7.58,101.26,160816,,,A*78, 33.31, 38, 32, 0, 0, 0, 0
K00208.DAT, 864484, 10.00, 1.20, -1, 864504, 16.8.2016 18:03:39, $GNRMC,181803.400,A,2224.8612,S,05231.5119,W,7.94,102.32,160816,,,A*7A, 33.31, 37, 32, 0, 0, 0, 0
K00209.DAT, 868589, 10.00, 1.20, -1, 868507, 16.8.2016 18:03:39, $GNRMC,181807.400,A,2224.8630,S,05231.5027,W,7.93,102.99,160816,,,A*74, 33.31, 37, 32, 0, 0, 0, 0
K00210.DAT, 872693, 10.00, 1.20, -1, 872707, 16.8.2016 18:03:39, $GNRMC,181811.600,A,2224.8651,S,05231.4931,W,7.78,102.16,160816,,,A*7B, 33.31, 37, 32, 0, 0, 0, 0
K00211.DAT, 876798, 10.00, 1.20, -1, 876705, 16.8.2016 18:03:39, $GNRMC,181815.600,A,2224.8668,S,05231.4838,W,7.74,102.01,160816,,,A*77, 33.31, 37, 32, 0, 0, 0, 0
K00212.DAT, 880902, 10.00, 1.20, -1, 880908, 16.8.2016 18:03:39, $GNRMC,181819.800,A,2224.8686,S,05231.4742,W,7.87,103.12,160816,,,A*78, 33.31, 37, 31, 0, 0, 0, 0
K00213.DAT, 885006, 10.00, 1.20, -1, 884906, 16.8.2016 18:03:39, $GNRMC,181823.800,A,2224.8708,S,05231.4651,W,7.76,103.02,160816,,,A*7A, 33.31, 37, 31, 0, 0, 0, 0
K00214.DAT, 889110, 10.00, 1.20, -1, 889106, 16.8.2016 18:03:39, $GNRMC,181828.000,A,2224.8728,S,05231.4554,W,7.61,102.33,160816,,,A*78, 33.31, 37, 31, 0, 0, 0, 0
K00215.DAT, 893215, 10.00, 1.20, -1, 893116, 16.8.2016 18:03:39, $GNRMC,181832.000,A,2224.8743,S,05231.4464,W,7.67,102.45,160816,,,A*7B, 33.31, 37, 31, 0, 0, 0, 0
K00216.DAT, 897319, 10.00, 1.20, -1, 897305, 16.8.2016 18:03:39, $GNRMC,181836.200,A,2224.8761,S,05231.4367,W,7.88,102.26,160816,,,A*7D, 33.31, 37, 32, 0, 0, 0, 0
K00217.DAT, 901425, 10.00, 1.20, -1, 901300, 16.8.2016 18:03:39, $GNRMC,181840.200,A,2224.8783,S,05231.4276,W,7.82,104.40,160816,,,A*7D, 33.37, 37, 32, 0, 0, 0, 0
K00218.DAT, 905729, 10.00, 1.20, -1, 905700, 16.8.2016 18:03:39, $GNRMC,181844.600,A,2224.8803,S,05231.4176,W,7.75,101.81,160816,,,A*79, 33.37, 37, 32, 0, 0, 0, 0
K00219.DAT, 909632, 10.00, 1.20, -1, 909501, 16.8.2016 18:03:39, $GNRMC,181848.400,A,2224.8822,S,05231.4089,W,7.81,102.25,160816,,,A*73, 33.37, 37, 32, 0, 0, 0, 0
K00220.DAT, 913737, 10.00, 1.20, -1, 913700, 16.8.2016 18:03:39, $GNRMC,181852.600,A,2224.8843,S,05231.3992,W,7.82,102.92,160816,,,A*76, 33.37, 37, 32, 0, 0, 0, 0
K00221.DAT, 917842, 10.00, 1.20, -1, 917707, 16.8.2016 18:03:39, $GNRMC,181856.600,A,2224.8862,S,05231.3901,W,7.73,101.74,160816,,,A*7E, 33.37, 38, 31, 0, 0, 0, 0
K00222.DAT, 921946, 10.00, 1.20, -1, 921900, 16.8.2016 18:03:39, $GNRMC,181900.800,A,2224.8882,S,05231.3806,W,7.72,101.66,160816,,,A*78, 33.37, 37, 32, 0, 0, 0, 0
K00223.DAT, 926050, 10.00, 1.20, -1, 925907, 16.8.2016 18:03:39, $GNRMC,181904.800,A,2224.8899,S,05231.3716,W,7.70,102.05,160816,,,A*7C, 33.37, 38, 32, 0, 0, 0, 0
K00224.DAT, 930155, 10.00, 1.20, -1, 930115, 16.8.2016 18:03:39, $GNRMC,181909.000,A,2224.8918,S,05231.3617,W,7.88,102.43,160816,,,A*74, 33.37, 37, 32, 0, 0, 0, 0
K00225.DAT, 934259, 10.00, 1.20, -1, 934116, 16.8.2016 18:03:39, $GNRMC,181913.000,A,2224.8937,S,05231.3526,W,7.75,103.28,160816,,,A*7D, 33.37, 38, 32, 0, 0, 0, 0
K00226.DAT, 938361, 10.00, 1.20, -1, 938300, 16.8.2016 18:03:39, $GNRMC,181917.200,A,2224.8954,S,05231.3430,W,7.66,102.13,160816,,,A*73, 33.37, 37, 32, 0, 0, 0, 0
K00227.DAT, 942464, 10.00, 1.20, -1, 942306, 16.8.2016 18:03:39, $GNRMC,181921.200,A,2224.8973,S,05231.3339,W,7.60,101.69,160816,,,A*75, 33.37, 37, 32, 0, 0, 0, 0
K00228.DAT, 946569, 10.00, 1.20, -1, 946505, 16.8.2016 18:03:39, $GNRMC,181925.400,A,2224.8998,S,05231.3244,W,7.40,101.27,160816,,,A*71, 33.37, 37, 32, 0, 0, 0, 0
K00229.DAT, 950674, 10.00, 1.20, -1, 950502, 16.8.2016 18:03:39, $GNRMC,181929.400,A,2224.9010,S,05231.3153,W,7.47,101.08,160816,,,A*7A, 33.37, 37, 32, 0, 0, 0, 0
K00230.DAT, 954777, 10.00, 1.20, -1, 954702, 16.8.2016 18:03:39, $GNRMC,181933.600,A,2224.9029,S,05231.3057,W,7.57,101.12,160816,,,A*76, 33.37, 37, 32, 0, 0, 0, 0
K00231.DAT, 958880, 10.00, 1.20, -1, 958902, 16.8.2016 18:03:39, $GNRMC,181937.800,A,2224.9051,S,05231.2965,W,7.72,102.22,160816,,,A*7D, 33.37, 37, 31, 0, 0, 0, 0
K00232.DAT, 962985, 10.00, 1.20, -1, 962902, 16.8.2016 18:03:39, $GNRMC,181941.800,A,2224.9069,S,05231.2871,W,7.93,103.09,160816,,,A*74, 33.37, 37, 32, 0, 0, 0, 0
K00233.DAT, 967090, 10.00, 1.20, -1, 967107, 16.8.2016 18:03:39, $GNRMC,181946.000,A,2224.9088,S,05231.2774,W,7.72,102.03,160816,,,A*7A, 33.37, 37, 32, 0, 0, 0, 0
K00234.DAT, 971194, 10.00, 1.20, -1, 971107, 16.8.2016 18:03:39, $GNRMC,181950.000,A,2224.9107,S,05231.2684,W,7.72,103.61,160816,,,A*70, 33.37, 38, 32, 0, 0, 0, 0
K00235.DAT, 975298, 10.00, 1.20, -1, 975301, 16.8.2016 18:03:39, $GNRMC,181954.200,A,2224.9123,S,05231.2588,W,7.81,102.69,160816,,,A*7A, 33.37, 38, 32, 0, 0, 0, 0
K00236.DAT, 979403, 10.00, 1.20, -1, 979306, 16.8.2016 18:03:39, $GNRMC,181958.200,A,2224.9141,S,05231.2500,W,7.70,102.99,160816,,,A*73, 33.37, 37, 32, 0, 0, 0, 0
K00237.DAT, 983507, 10.00, 1.20, -1, 983501, 16.8.2016 18:03:39, $GNRMC,182002.400,A,2224.9159,S,05231.2410,W,7.52,102.49,160816,,,A*74, 33.37, 37, 32, 0, 0, 0, 0
K00238.DAT, 987611, 10.00, 1.20, -1, 987502, 16.8.2016 18:03:39, $GNRMC,182006.400,A,2224.9178,S,05231.2319,W,7.67,103.37,160816,,,A*73, 33.37, 37, 32, 0, 0, 0, 0
K00239.DAT, 991715, 10.00, 1.20, -1, 991702, 16.8.2016 18:03:39, $GNRMC,182010.600,A,2224.9196,S,05231.2223,W,7.68,101.10,160816,,,A*76, 33.37, 37, 32, 0, 0, 0, 0
K00240.DAT, 995821, 10.00, 1.20, -1, 995703, 16.8.2016 18:03:39, $GNRMC,182014.600,A,2224.9216,S,05231.2130,W,7.81,102.73,160816,,,A*79, 33.37, 37, 32, 0, 0, 0, 0
K00241.DAT, 999925, 10.00, 1.20, -1, 999902, 16.8.2016 18:03:39, $GNRMC,182018.800,A,2224.9237,S,05231.2037,W,7.68,103.43,160816,,,A*7B, 33.37, 37, 32, 0, 0, 0, 0
K00242.DAT, 1004030, 10.00, 1.20, -1, 1003906, 16.8.2016 18:03:39, $GNRMC,182022.800,A,2224.9254,S,05231.1949,W,7.84,101.11,160816,,,A*73, 33.37, 37, 32, 0, 0, 0, 0
K00243.DAT, 1008133, 10.00, 1.20, -1, 1008115, 16.8.2016 18:03:39, $GNRMC,182027.000,A,2224.9276,S,05231.1854,W,7.89,102.79,160816,,,A*73, 33.37, 37, 32, 0, 0, 0, 0
K00244.DAT, 1012236, 10.00, 1.20, -1, 1012116, 16.8.2016 18:03:39, $GNRMC,182031.000,A,2224.9293,S,05231.1762,W,7.90,101.34,160816,,,A*77, 33.37, 37, 32, 0, 0, 0, 0
K00245.DAT, 1016340, 10.00, 1.20, -1, 1016308, 16.8.2016 18:03:39, $GNRMC,182035.200,A,2224.9310,S,05231.1663,W,7.67,101.41,160816,,,A*71, 33.37, 38, 32, 0, 0, 0, 0
K00246.DAT, 1020446, 10.00, 1.20, -1, 1020306, 16.8.2016 18:03:39, $GNRMC,182039.200,A,2224.9328,S,05231.1568,W,7.94,101.95,160816,,,A*7B, 33.37, 38, 32, 0, 0, 0, 0
K00247.DAT, 1024549, 10.00, 1.20, -1, 1024508, 16.8.2016 18:03:39, $GNRMC,182043.400,A,2224.9349,S,05231.1473,W,7.84,103.32,160816,,,A*72, 33.44, 37, 32, 0, 0, 0, 0
K00248.DAT, 1028655, 10.00, 1.20, -1, 1028502, 16.8.2016 18:03:39, $GNRMC,182047.400,A,2224.9368,S,05231.1385,W,7.70,102.59,160816,,,A*7C, 33.44, 38, 32, 0, 0, 0, 0
K00249.DAT, 1032759, 10.00, 1.20, -1, 1032703, 16.8.2016 18:03:39, $GNRMC,182051.600,A,2224.9387,S,05231.1289,W,7.93,103.04,160816,,,A*71, 33.44, 37, 31, 0, 0, 0, 0
K00250.DAT, 1036863, 10.00, 1.20, -1, 1036708, 16.8.2016 18:03:39, $GNRMC,182055.600,A,2224.9406,S,05231.1197,W,7.39,101.63,160816,,,A*74, 33.44, 37, 32, 0, 0, 0, 0
K00251.DAT, 1040967, 10.00, 1.20, -1, 1040908, 16.8.2016 18:03:39, $GNRMC,182059.800,A,2224.9426,S,05231.1101,W,7.81,101.44,160816,,,A*7D, 33.44, 38, 32, 0, 0, 0, 0
K00252.DAT, 1045071, 10.00, 1.20, -1, 1044904, 16.8.2016 18:03:39, $GNRMC,182103.800,A,2224.9445,S,05231.1010,W,7.67,109.40,160816,,,A*73, 33.44, 38, 32, 0, 0, 0, 0
K00253.DAT, 1049177, 10.00, 1.20, -1, 1049112, 16.8.2016 18:03:39, $GNRMC,182108.000,A,2224.9499,S,05231.0939,W,7.37,145.59,160816,,,A*77, 33.44, 37, 32, 0, 0, 0, 0
K00254.DAT, 1053281, 10.00, 1.20, -1, 1053306, 16.8.2016 18:03:39, $GNRMC,182112.200,A,2224.9570,S,05231.0941,W,6.12,213.07,160816,,,A*7A, 33.44, 37, 32, 0, 0, 0, 0
K00255.DAT, 1057384, 10.00, 1.20, -1, 1057308, 16.8.2016 18:03:39, $GNRMC,182116.200,A,2224.9607,S,05231.0995,W,5.41,252.08,160816,,,A*7B, 33.44, 38, 32, 0, 0, 0, 0
K00256.DAT, 1061490, 10.00, 1.20, -1, 1061508, 16.8.2016 18:03:39, $GNRMC,182120.400,A,2224.9613,S,05231.1062,W,5.97,272.08,160816,,,A*74, 33.44, 38, 32, 0, 0, 0, 0
K00257.DAT, 1065594, 10.00, 1.20, -1, 1065508, 16.8.2016 18:03:39, $GNRMC,182124.400,A,2224.9605,S,05231.1138,W,6.62,279.37,160816,,,A*77, 33.44, 38, 32, 0, 0, 0, 0
K00258.DAT, 1069699, 10.00, 1.20, -1, 1069709, 16.8.2016 18:03:39, $GNRMC,182128.600,A,2224.9586,S,05231.1224,W,7.25,284.44,160816,,,A*7B, 33.44, 37, 32, 0, 0, 0, 0
K00259.DAT, 1073803, 10.00, 1.20, -1, 1073710, 16.8.2016 18:03:39, $GNRMC,182132.600,A,2224.9565,S,05231.1311,W,7.43,280.51,160816,,,A*7A, 33.44, 37, 32, 0, 0, 0, 0
K00260.DAT, 1077907, 10.00, 1.20, -1, 1077907, 16.8.2016 18:03:39, $GNRMC,182136.800,A,2224.9544,S,05231.1403,W,7.49,283.47,160816,,,A*79, 33.44, 37, 32, 0, 0, 0, 0
K00261.DAT, 1082011, 10.00, 1.20, -1, 1081908, 16.8.2016 18:03:39, $GNRMC,182140.800,A,2224.9528,S,05231.1487,W,7.13,282.40,160816,,,A*77, 33.44, 37, 32, 0, 0, 0, 0
K00262.DAT, 1086114, 10.00, 1.20, -1, 1086119, 16.8.2016 18:03:39, $GNRMC,182145.000,A,2224.9511,S,05231.1581,W,7.60,283.20,160816,,,A*74, 33.44, 37, 32, 0, 0, 0, 0
K00263.DAT, 1090219, 10.00, 1.20, -1, 1090120, 16.8.2016 18:03:39, $GNRMC,182149.000,A,2224.9493,S,05231.1673,W,7.59,281.16,160816,,,A*70, 33.44, 37, 32, 0, 0, 0, 0
K00264.DAT, 1094323, 10.00, 1.20, -1, 1094308, 16.8.2016 18:03:39, $GNRMC,182153.200,A,2224.9473,S,05231.1766,W,7.76,285.84,160816,,,A*70, 33.44, 38, 32, 0, 0, 0, 0
K00265.DAT, 1098427, 10.00, 1.20, -1, 1098308, 16.8.2016 18:03:39, $GNRMC,182157.200,A,2224.9448,S,05231.1851,W,7.58,284.18,160816,,,A*7F, 33.44, 37, 32, 0, 0, 0, 0
K00266.DAT, 1102532, 10.00, 1.20, -1, 1102509, 16.8.2016 18:03:39, $GNRMC,182201.400,A,2224.9428,S,05231.1939,W,7.62,284.35,160816,,,A*76, 33.44, 38, 32, 0, 0, 0, 0
K00267.DAT, 1106636, 10.00, 1.20, -1, 1106508, 16.8.2016 18:03:39, $GNRMC,182205.400,A,2224.9412,S,05231.2020,W,7.07,285.04,160816,,,A*79, 33.44, 38, 32, 0, 0, 0, 0
K00268.DAT, 1110741, 10.00, 1.20, -1, 1110708, 16.8.2016 18:03:39, $GNRMC,182209.600,A,2224.9397,S,05231.2113,W,7.02,283.66,160816,,,A*7B, 33.44, 38, 32, 0, 0, 0, 0
K00269.DAT, 1114845, 10.00, 1.20, -1, 1114709, 16.8.2016 18:03:39, $GNRMC,182213.600,A,2224.9382,S,05231.2207,W,7.78,279.76,160816,,,A*7B, 33.44, 38, 32, 0, 0, 0, 0
K00270.DAT, 1118950, 10.00, 1.20, -1, 1118909, 16.8.2016 18:03:39, $GNRMC,182217.800,A,2224.9363,S,05231.2306,W,7.32,285.30,160816,,,A*71, 33.44, 37, 32, 0, 0, 0, 0
K00271.DAT, 1123054, 10.00, 1.20, -1, 1122909, 16.8.2016 18:03:39, $GNRMC,182221.800,A,2224.9345,S,05231.2396,W,7.62,281.85,160816,,,A*76, 33.44, 38, 32, 0, 0, 0, 0
K00272.DAT, 1127159, 10.00, 1.20, -1, 1127118, 16.8.2016 18:03:39, $GNRMC,182226.000,A,2224.9322,S,05231.2486,W,7.76,284.12,160816,,,A*70, 33.44, 37, 32, 0, 0, 0, 0
K00273.DAT, 1131262, 10.00, 1.20, -1, 1131117, 16.8.2016 18:03:39, $GNRMC,182230.000,A,2224.9301,S,05231.2575,W,7.84,281.21,160816,,,A*73, 33.50, 38, 32, 0, 0, 0, 0
K00274.DAT, 1135368, 10.00, 1.20, -1, 1135309, 16.8.2016 18:03:39, $GNRMC,182234.200,A,2224.9283,S,05231.2671,W,7.38,283.48,160816,,,A*73, 33.50, 38, 32, 0, 0, 0, 0
K00275.DAT, 1139472, 10.00, 1.20, -1, 1139308, 16.8.2016 18:03:39, $GNRMC,182238.200,A,2224.9263,S,05231.2761,W,7.92,279.28,160816,,,A*72, 33.50, 37, 32, 0, 0, 0, 0
K00276.DAT, 1143576, 10.00, 1.20, -1, 1143508, 16.8.2016 18:03:39, $GNRMC,182242.400,A,2224.9251,S,05231.2859,W,7.48,279.15,160816,,,A*75, 33.50, 37, 32, 0, 0, 0, 0
K00277.DAT, 1147681, 10.00, 1.20, -1, 1147508, 16.8.2016 18:03:39, $GNRMC,182246.400,A,2224.9237,S,05231.2947,W,7.84,284.43,160816,,,A*7E, 33.50, 37, 32, 0, 0, 0, 0
K00278.DAT, 1151784, 10.00, 1.20, -1, 1151709, 16.8.2016 18:03:39, $GNRMC,182250.600,A,2224.9217,S,05231.3043,W,7.96,279.83,160816,,,A*78, 33.50, 37, 32, 0, 0, 0, 0
K00279.DAT, 1155890, 10.00, 1.20, -1, 1155908, 16.8.2016 18:03:39, $GNRMC,182254.800,A,2224.9195,S,05231.3135,W,7.81,281.81,160816,,,A*78, 33.50, 38, 32, 0, 0, 0, 0
K00280.DAT, 1159993, 10.00, 1.20, -1, 1159908, 16.8.2016 18:03:39, $GNRMC,182258.800,A,2224.9173,S,05231.3226,W,7.56,284.27,160816,,,A*7E, 33.50, 38, 32, 0, 0, 0, 0
K00281.DAT, 1164097, 10.00, 1.20, -1, 1164120, 16.8.2016 18:03:39, $GNRMC,182303.000,A,2224.9156,S,05231.3322,W,7.91,281.05,160816,,,A*75, 33.50, 37, 32, 0, 0, 0, 0
K00282.DAT, 1168202, 10.00, 1.20, -1, 1168121, 16.8.2016 18:03:39, $GNRMC,182307.000,A,2224.9143,S,05231.3411,W,7.75,283.27,160816,,,A*7A, 33.50, 38, 32, 0, 0, 0, 0
K00283.DAT, 1172307, 10.00, 1.20, -1, 1172308, 16.8.2016 18:03:39, $GNRMC,182311.200,A,2224.9123,S,05231.3508,W,7.66,281.51,160816,,,A*71, 33.50, 37, 32, 0, 0, 0, 0
K00284.DAT, 1176411, 10.00, 1.20, -1, 1176307, 16.8.2016 18:03:39, $GNRMC,182315.200,A,2224.9103,S,05231.3599,W,7.66,283.37,160816,,,A*7D, 33.50, 38, 32, 0, 0, 0, 0
K00285.DAT, 1180515, 10.00, 1.20, -1, 1180508, 16.8.2016 18:03:39, $GNRMC,182319.400,A,2224.9082,S,05231.3695,W,7.86,278.19,160816,,,A*76, 33.50, 37, 32, 0, 0, 0, 0
K00286.DAT, 1184619, 10.00, 1.20, -1, 1184507, 16.8.2016 18:03:39, $GNRMC,182323.400,A,2224.9067,S,05231.3784,W,7.97,283.31,160816,,,A*7B, 33.50, 37, 32, 0, 0, 0, 0
K00287.DAT, 1188725, 10.00, 1.20, -1, 1188709, 16.8.2016 18:03:39, $GNRMC,182327.600,A,2224.9044,S,05231.3881,W,7.91,284.62,160816,,,A*71, 33.50, 37, 32, 0, 0, 0, 0
K00288.DAT, 1192829, 10.00, 1.20, -1, 1192709, 16.8.2016 18:03:39, $GNRMC,182331.600,A,2224.9026,S,05231.3977,W,8.13,282.76,160816,,,A*7C, 33.50, 37, 32, 0, 0, 0, 0
K00289.DAT, 1196934, 10.00, 1.20, -1, 1196909, 16.8.2016 18:03:39, $GNRMC,182335.800,A,2224.9004,S,05231.4078,W,7.74,280.31,160816,,,A*78, 33.50, 37, 32, 0, 0, 0, 0
K00290.DAT, 1201038, 10.00, 1.20, -1, 1200912, 16.8.2016 18:03:39, $GNRMC,182339.800,A,2224.8986,S,05231.4171,W,8.11,284.62,160816,,,A*70, 33.50, 38, 32, 0, 0, 0, 0
K00291.DAT, 1205142, 10.00, 1.20, -1, 1205121, 16.8.2016 18:03:39, $GNRMC,182344.000,A,2224.8964,S,05231.4265,W,7.57,280.82,160816,,,A*7F, 33.50, 37, 31, 0, 0, 0, 0
K00292.DAT, 1209246, 10.00, 1.20, -1, 1209121, 16.8.2016 18:03:39, $GNRMC,182348.000,A,2224.8948,S,05231.4357,W,7.60,282.17,160816,,,A*77, 33.50, 38, 32, 0, 0, 0, 0
K00293.DAT, 1213347, 10.00, 1.20, -1, 1213307, 16.8.2016 18:03:39, $GNRMC,182352.200,A,2224.8934,S,05231.4451,W,7.64,282.99,160816,,,A*76, 33.50, 37, 32, 0, 0, 0, 0
K00294.DAT, 1217453, 10.00, 1.20, -1, 1217307, 16.8.2016 18:03:39, $GNRMC,182356.200,A,2224.8916,S,05231.4542,W,7.65,280.89,160816,,,A*73, 33.50, 38, 32, 0, 0, 0, 0
K00295.DAT, 1221557, 10.00, 1.20, -1, 1221509, 16.8.2016 18:03:39, $GNRMC,182400.400,A,2224.8896,S,05231.4637,W,7.61,280.34,160816,,,A*7B, 33.50, 38, 32, 0, 0, 0, 0
K00296.DAT, 1225661, 10.00, 1.20, -1, 1225507, 16.8.2016 18:03:39, $GNRMC,182404.400,A,2224.8883,S,05231.4728,W,7.82,281.59,160816,,,A*73, 33.50, 38, 32, 0, 0, 0, 0
K00297.DAT, 1229765, 10.00, 1.20, -1, 1229709, 16.8.2016 18:03:39, $GNRMC,182408.600,A,2224.8862,S,05231.4822,W,7.60,279.82,160816,,,A*7A, 33.50, 37, 32, 0, 0, 0, 0
K00298.DAT, 1233869, 10.00, 1.20, -1, 1233708, 16.8.2016 18:03:39, $GNRMC,182412.600,A,2224.8845,S,05231.4915,W,7.64,283.38,160816,,,A*71, 33.50, 37, 32, 0, 0, 0, 0
K00299.DAT, 1237973, 10.00, 1.20, -1, 1237908, 16.8.2016 18:03:39, $GNRMC,182416.800,A,2224.8820,S,05231.5006,W,7.80,284.29,160816,,,A*7F, 33.50, 37, 32, 0, 0, 0, 0
K00300.DAT, 1242078, 10.00, 1.20, -1, 1241906, 16.8.2016 18:03:39, $GNRMC,182420.800,A,2224.8802,S,05231.5094,W,7.69,283.57,160816,,,A*78, 33.50, 37, 32, 0, 0, 0, 0
K00301.DAT, 1246182, 10.00, 1.20, -1, 1246121, 16.8.2016 18:03:39, $GNRMC,182425.000,A,2224.8778,S,05231.5188,W,8.11,282.29,160816,,,A*73, 33.50, 38, 32, 0, 0, 0, 0
K00302.DAT, 1250288, 10.00, 1.20, -1, 1250309, 16.8.2016 18:03:39, $GNRMC,182429.200,A,2224.8755,S,05231.5281,W,7.91,281.93,160816,,,A*7D, 33.50, 37, 32, 0, 0, 0, 0
K00303.DAT, 1254392, 10.00, 1.20, -1, 1254307, 16.8.2016 18:03:39, $GNRMC,182433.200,A,2224.8742,S,05231.5381,W,8.01,283.16,160816,,,A*78, 33.50, 37, 32, 0, 0, 0, 0
K00304.DAT, 1258497, 10.00, 1.20, -1, 1258507, 16.8.2016 18:03:39, $GNRMC,182437.400,A,2224.8725,S,05231.5485,W,8.15,283.24,160816,,,A*7C, 33.50, 37, 32, 0, 0, 0, 0
K00305.DAT, 1262601, 10.00, 1.20, -1, 1262508, 16.8.2016 18:03:39, $GNRMC,182441.400,A,2224.8707,S,05231.5579,W,7.60,281.90,160816,,,A*7F, 33.50, 37, 32, 0, 0, 0, 0
K00306.DAT, 1266704, 10.00, 1.20, -1, 1266708, 16.8.2016 18:03:39, $GNRMC,182445.600,A,2224.8691,S,05231.5670,W,7.65,283.54,160816,,,A*72, 33.50, 38, 32, 0, 0, 0, 0
K00307.DAT, 1270809, 10.00, 1.20, -1, 1270710, 16.8.2016 18:03:39, $GNRMC,182449.600,A,2224.8672,S,05231.5758,W,7.97,280.38,160816,,,A*7C, 33.50, 37, 32, 0, 0, 0, 0
K00308.DAT, 1274913, 10.00, 1.20, -1, 1274910, 16.8.2016 18:03:39, $GNRMC,182453.800,A,2224.8654,S,05231.5858,W,8.18,282.74,160816,,,A*70, 33.50, 38, 32, 0, 0, 0, 0
K00309.DAT, 1279019, 10.00, 1.20, -1, 1278907, 16.8.2016 18:03:39, $GNRMC,182457.800,A,2224.8631,S,05231.5951,W,7.78,283.28,160816,,,A*7E, 33.50, 37, 32, 0, 0, 0, 0
K00310.DAT, 1283123, 10.00, 1.20, -1, 1283124, 16.8.2016 18:03:39, $GNRMC,182502.000,A,2224.8613,S,05231.6045,W,7.83,281.39,160816,,,A*7E, 33.50, 37, 32, 0, 0, 0, 0
K00311.DAT, 1287227, 10.00, 1.20, -1, 1287124, 16.8.2016 18:03:39, $GNRMC,182506.000,A,2224.8594,S,05231.6135,W,7.79,285.84,160816,,,A*77, 33.50, 37, 32, 0, 0, 0, 0
K00312.DAT, 1291332, 10.00, 1.20, -1, 1291310, 16.8.2016 18:03:39, $GNRMC,182510.200,A,2224.8577,S,05231.6238,W,7.83,281.50,160816,,,A*79, 33.50, 37, 32, 0, 0, 0, 0
K00313.DAT, 1295435, 10.00, 1.20, -1, 1295308, 16.8.2016 18:03:39, $GNRMC,182514.200,A,2224.8559,S,05231.6330,W,7.85,281.29,160816,,,A*70, 33.50, 37, 32, 0, 0, 0, 0
K00314.DAT, 1299540, 10.00, 1.20, -1, 1299508, 16.8.2016 18:03:39, $GNRMC,182518.400,A,2224.8543,S,05231.6430,W,7.99,280.67,160816,,,A*70, 33.50, 37, 32, 0, 0, 0, 0
K00315.DAT, 1303644, 10.00, 1.20, -1, 1303508, 16.8.2016 18:03:39, $GNRMC,182522.400,A,2224.8524,S,05231.6524,W,8.17,283.92,160816,,,A*7C, 33.50, 38, 32, 0, 0, 0, 0
K00316.DAT, 1307748, 10.00, 1.20, -1, 1307708, 16.8.2016 18:03:39, $GNRMC,182526.600,A,2224.8500,S,05231.6617,W,7.84,282.10,160816,,,A*71, 33.50, 38, 32, 0, 0, 0, 0
K00317.DAT, 1311853, 10.00, 1.20, -1, 1311709, 16.8.2016 18:03:39, $GNRMC,182530.600,A,2224.8481,S,05231.6706,W,7.81,281.44,160816,,,A*78, 33.50, 38, 32, 0, 0, 0, 0
K00318.DAT, 1315957, 10.00, 1.20, -1, 1315909, 16.8.2016 18:03:39, $GNRMC,182534.800,A,2224.8462,S,05231.6800,W,7.79,281.65,160816,,,A*72, 33.50, 37, 32, 0, 0, 0, 0
K00319.DAT, 1320063, 10.00, 1.20, -1, 1319908, 16.8.2016 18:03:39, $GNRMC,182538.800,A,2224.8441,S,05231.6890,W,7.57,281.73,160816,,,A*7D, 33.50, 38, 32, 0, 0, 0, 0
K00320.DAT, 1324166, 10.00, 1.20, -1, 1324123, 16.8.2016 18:03:39, $GNRMC,182543.000,A,2224.8424,S,05231.6992,W,7.72,282.09,160816,,,A*70, 33.50, 37, 32, 0, 0, 0, 0
K00321.DAT, 1328271, 10.00, 1.20, -1, 1328125, 16.8.2016 18:03:39, $GNRMC,182547.000,A,2224.8409,S,05231.7082,W,7.76,280.66,160816,,,A*7D, 33.50, 37, 32, 0, 0, 0, 0
K00322.DAT, 1332376, 10.00, 1.20, -1, 1332308, 16.8.2016 18:03:39, $GNRMC,182551.200,A,2224.8392,S,05231.7180,W,7.84,281.43,160816,,,A*75, 33.50, 37, 32, 0, 0, 0, 0
K00323.DAT, 1336479, 10.00, 1.20, -1, 1336312, 16.8.2016 18:03:39, $GNRMC,182555.200,A,2224.8370,S,05231.7264,W,7.83,285.15,160816,,,A*74, 33.50, 38, 32, 0, 0, 0, 0
K00324.DAT, 1340582, 10.00, 1.20, -1, 1340511, 16.8.2016 18:03:39, $GNRMC,182559.400,A,2224.8353,S,05231.7362,W,7.62,282.85,160816,,,A*79, 33.50, 38, 31, 0, 0, 0, 0
K00325.DAT, 1344685, 10.00, 1.20, -1, 1344710, 16.8.2016 18:03:39, $GNRMC,182603.600,A,2224.8336,S,05231.7464,W,8.00,283.81,160816,,,A*7B, 33.50, 37, 33, 0, 0, 0, 0
K00326.DAT, 1348790, 10.00, 1.20, -1, 1348711, 16.8.2016 18:03:39, $GNRMC,182607.600,A,2224.8323,S,05231.7558,W,7.79,282.44,160816,,,A*7C, 33.50, 37, 32, 0, 0, 0, 0
K00327.DAT, 1352894, 10.00, 1.20, -1, 1352910, 16.8.2016 18:03:39, $GNRMC,182611.800,A,2224.8303,S,05231.7652,W,7.56,283.30,160816,,,A*71, 33.50, 38, 32, 0, 0, 0, 0
K00328.DAT, 1356998, 10.00, 1.20, -1, 1356909, 16.8.2016 18:03:39, $GNRMC,182615.800,A,2224.8283,S,05231.7743,W,7.75,280.46,160816,,,A*7E, 33.50, 37, 32, 0, 0, 0, 0
K00329.DAT, 1361103, 10.00, 1.20, -1, 1361125, 16.8.2016 18:03:39, $GNRMC,182620.000,A,2224.8265,S,05231.7847,W,8.09,282.56,160816,,,A*74, 33.50, 37, 32, 0, 0, 0, 0
K00330.DAT, 1365207, 10.00, 1.20, -1, 1365124, 16.8.2016 18:03:39, $GNRMC,182624.000,A,2224.8243,S,05231.7941,W,7.81,282.82,160816,,,A*75, 33.50, 37, 32, 0, 0, 0, 0
K00331.DAT, 1369312, 10.00, 1.20, -1, 1369310, 16.8.2016 18:03:39, $GNRMC,182628.200,A,2224.8216,S,05231.8033,W,8.09,282.55,160816,,,A*7D, 33.50, 37, 32, 0, 0, 0, 0
K00332.DAT, 1373417, 10.00, 1.20, -1, 1373309, 16.8.2016 18:03:39, $GNRMC,182632.200,A,2224.8193,S,05231.8130,W,8.08,283.01,160816,,,A*7B, 33.50, 37, 32, 0, 0, 0, 0
K00333.DAT, 1377522, 10.00, 1.20, -1, 1377510, 16.8.2016 18:03:39, $GNRMC,182636.400,A,2224.8174,S,05231.8229,W,8.20,282.08,160816,,,A*79, 33.50, 37, 32, 0, 0, 0, 0
K00334.DAT, 1381626, 10.00, 1.20, -1, 1381510, 16.8.2016 18:03:39, $GNRMC,182640.400,A,2224.8157,S,05231.8320,W,8.07,280.82,160816,,,A*74, 33.50, 37, 32, 0, 0, 0, 0
K00335.DAT, 1385729, 10.00, 1.20, -1, 1385711, 16.8.2016 18:03:39, $GNRMC,182644.600,A,2224.8137,S,05231.8415,W,7.84,282.70,160816,,,A*7E, 33.50, 37, 32, 0, 0, 0, 0
K00336.DAT, 1389835, 10.00, 1.20, -1, 1389707, 16.8.2016 18:03:39, $GNRMC,182648.600,A,2224.8120,S,05231.8507,W,7.79,281.37,160816,,,A*74, 33.50, 38, 32, 0, 0, 0, 0
K00337.DAT, 1393939, 10.00, 1.20, -1, 1393909, 16.8.2016 18:03:39, $GNRMC,182652.800,A,2224.8105,S,05231.8605,W,7.55,280.99,160816,,,A*7C, 33.50, 38, 32, 0, 0, 0, 0
K00338.DAT, 1398042, 10.00, 1.20, -1, 1397910, 16.8.2016 18:03:39, $GNRMC,182656.800,A,2224.8090,S,05231.8699,W,7.57,280.96,160816,,,A*7D, 33.50, 38, 32, 0, 0, 0, 0
K00339.DAT, 1402147, 10.00, 1.20, -1, 1402128, 16.8.2016 18:03:39, $GNRMC,182701.000,A,2224.8072,S,05231.8794,W,7.79,283.04,160816,,,A*72, 33.50, 38, 32, 0, 0, 0, 0
K00340.DAT, 1406251, 10.00, 1.20, -1, 1406126, 16.8.2016 18:03:39, $GNRMC,182705.000,A,2224.8052,S,05231.8884,W,7.67,283.60,160816,,,A*77, 33.50, 37, 32, 0, 0, 0, 0
K00341.DAT, 1410355, 10.00, 1.20, -1, 1410310, 16.8.2016 18:03:39, $GNRMC,182709.200,A,2224.8033,S,05231.8977,W,7.81,281.13,160816,,,A*7D, 33.50, 38, 32, 0, 0, 0, 0
K00342.DAT, 1414461, 10.00, 1.20, -1, 1414318, 16.8.2016 18:03:39, $GNRMC,182713.200,A,2224.8014,S,05231.9069,W,7.96,282.98,160816,,,A*72, 33.50, 38, 32, 0, 0, 0, 0
K00343.DAT, 1418564, 10.00, 1.20, -1, 1418509, 16.8.2016 18:03:39, $GNRMC,182717.400,A,2224.7993,S,05231.9169,W,7.83,282.51,160816,,,A*79, 33.50, 37, 32, 0, 0, 0, 0
K00344.DAT, 1422670, 10.00, 1.20, -1, 1422510, 16.8.2016 18:03:39, $GNRMC,182721.400,A,2224.7977,S,05231.9262,W,7.98,280.96,160816,,,A*7D, 33.50, 37, 32, 0, 0, 0, 0
K00345.DAT, 1426774, 10.00, 1.20, -1, 1426711, 16.8.2016 18:03:39, $GNRMC,182725.600,A,2224.7956,S,05231.9355,W,7.71,281.76,160816,,,A*75, 33.50, 38, 32, 0, 0, 0, 0
K00346.DAT, 1430878, 10.00, 1.20, -1, 1430710, 16.8.2016 18:03:39, $GNRMC,182729.600,A,2224.7937,S,05231.9447,W,8.10,283.60,160816,,,A*77, 33.50, 37, 32, 0, 0, 0, 0
K00347.DAT, 1434982, 10.00, 1.20, -1, 1434910, 16.8.2016 18:03:39, $GNRMC,182733.800,A,2224.7922,S,05231.9541,W,7.76,282.21,160816,,,A*7A, 33.50, 37, 32, 0, 0, 0, 0
K00348.DAT, 1439087, 10.00, 1.20, -1, 1438909, 16.8.2016 18:03:39, $GNRMC,182737.800,A,2224.7902,S,05231.9632,W,7.99,282.26,160816,,,A*7D, 33.50, 38, 32, 0, 0, 0, 0
K00349.DAT, 1443191, 10.00, 1.20, -1, 1443131, 16.8.2016 18:03:39, $GNRMC,182742.000,A,2224.7883,S,05231.9729,W,7.87,280.69,160816,,,A*72, 33.50, 38, 32, 0, 0, 0, 0
